City_ID,City,Lat,Lng,Max Temp,Humidity,Cloudiness,Wind Speed,Country,Date,Time
0,adamstown,-25.066,-130.1015,22.05,72,56,5.13,PN,2023-06-04,18:03:09
1,ulladulla,-35.35,150.4667,12.09,72,100,1.95,AU,2023-06-04,18:03:24
2,constantia,44.1833,28.65,15.39,56,71,4.61,RO,2023-06-04,18:03:39
3,udachny,66.4167,112.4,1.36,92,100,7.35,RU,2023-06-04,18:03:30
4,ust-tsilma,65.441,52.1498,9.68,85,100,4.54,RU,2023-06-04,18:08:09
5,lebu,-37.6167,-73.65,12.38,61,57,2.02,CL,2023-06-04,18:03:52
6,khovd,48.0056,91.6419,17.05,34,79,0.36,MN,2023-06-04,18:03:22
7,santa rosalia,27.3167,-112.2833,28.41,29,53,2.5,MX,2023-06-04,18:10:13
8,port-aux-francais,-49.35,70.2167,7.49,93,99,16.64,TF,2023-06-04,18:03:05
9,wailua homesteads,22.0669,-159.378,25.24,87,20,1.54,US,2023-06-04,18:03:33
10,thompson,55.7435,-97.8558,15.09,72,75,4.63,CA,2023-06-04,18:03:04
11,bikenibeu village,1.3673,173.1241,27.98,83,40,2.06,KI,2023-06-04,18:03:29
12,edinburgh of the seven seas,-37.0676,-12.3116,14.18,88,100,19.38,SH,2023-06-04,18:03:04
13,hithadhoo,-0.6,73.0833,28.46,73,100,3.45,MV,2023-06-04,18:00:18
14,grytviken,-54.2811,-36.5092,-0.45,94,99,3.33,GS,2023-06-04,17:59:18
15,bredasdorp,-34.5322,20.0403,10.95,70,83,11.15,ZA,2023-06-04,17:58:56
16,aasiaat,68.7098,-52.8699,-0.71,73,63,3.91,GL,2023-06-04,18:03:00
17,boca do acre,-8.7522,-67.3978,33.91,43,13,1.61,BR,2023-06-04,18:10:15
18,fort st. john,56.2499,-120.8529,17.94,72,40,5.14,CA,2023-06-04,18:01:09
19,fale old settlement,-9.3852,-171.2468,28.34,74,97,6.22,TK,2023-06-04,18:04:18
20,vadso,70.0744,29.7487,7.49,65,75,3.09,NO,2023-06-04,18:04:22
21,papatowai,-46.5619,169.4708,6.78,86,88,2.59,NZ,2023-06-04,18:03:07
22,port augusta,-32.5,137.7667,14.44,90,100,1.06,AU,2023-06-04,18:03:35
23,iqaluit,63.7506,-68.5145,3.85,75,75,8.23,CA,2023-06-04,18:03:02
24,el calafate,-50.3408,-72.2768,2.3,70,75,0.89,AR,2023-06-04,18:03:56
25,nagarote,12.2659,-86.5647,32.18,58,98,2.35,NI,2023-06-04,18:10:16
26,qaqortoq,60.7167,-46.0333,1.21,99,100,1.53,GL,2023-06-04,18:03:07
27,praia da vitoria,38.7333,-27.0667,21.14,83,40,4.62,PT,2023-06-04,18:04:20
28,mongoumba,3.6415,18.5936,26.11,70,75,2.14,CF,2023-06-04,18:10:16
29,arilje,43.7531,20.0956,17.2,95,25,1.06,RS,2023-06-04,18:10:16
30,west island,-12.1568,96.8225,25.99,83,100,8.23,CC,2023-06-04,18:03:02
31,hammerfest,70.6634,23.6821,8.25,71,75,2.06,NO,2023-06-04,18:10:16
32,la passe,45.5549,-0.8967,19.99,79,43,2.75,FR,2023-06-04,18:03:43
33,isafjordur,66.0755,-23.124,12.02,62,75,2.57,IS,2023-06-04,18:03:11
34,ilulissat,69.2167,-51.1,-0.91,82,98,1.6,GL,2023-06-04,18:03:24
35,hermanus,-34.4187,19.2345,11.56,68,97,12.31,ZA,2023-06-04,18:03:37
36,kingston,17.997,-76.7936,30.67,74,20,4.63,JM,2023-06-04,18:03:25
37,blackmans bay,-43.0167,147.3167,1.4,90,12,3.67,AU,2023-06-04,18:03:04
38,stanley,54.868,-1.6985,14.85,72,0,3.09,GB,2023-06-04,18:03:03
39,albany,42.6001,-73.9662,17.67,50,73,2.68,US,2023-06-04,18:00:14
40,jamestown,42.097,-79.2353,22.51,30,0,6.69,US,2023-06-04,18:00:16
41,bethel,41.3712,-73.414,18.97,58,100,5.14,US,2023-06-04,18:03:11
42,smithers,54.7804,-127.1743,7.18,93,75,1.54,CA,2023-06-04,18:03:47
43,cukurca,37.2481,43.6136,18.34,46,10,0.9,TR,2023-06-04,18:10:18
44,hamilton,39.1834,-84.5333,27.55,53,0,3.6,US,2023-06-04,17:59:27
45,prado,-17.3411,-39.2208,24.65,65,41,3.98,BR,2023-06-04,18:07:24
46,olonkinbyen,70.9221,-8.7187,-0.27,85,48,5.43,SJ,2023-06-04,18:03:08
47,longyearbyen,78.2186,15.6401,2.91,75,75,3.09,SJ,2023-06-04,17:58:09
48,bilibino,68.0546,166.4372,6.68,89,97,2.11,RU,2023-06-04,18:03:14
49,tiksi,71.6872,128.8694,0.8,98,100,1.84,RU,2023-06-04,18:03:10
50,yelizovo,53.1873,158.3805,5.06,93,100,0.89,RU,2023-06-04,18:10:19
51,enewetak,11.3474,162.3373,27.79,77,100,5.37,MH,2023-06-04,18:03:27
52,palmer,42.1584,-72.3287,15.25,66,75,5.14,US,2023-06-04,18:00:10
53,lihue,21.9789,-159.3672,22.63,87,75,2.57,US,2023-06-04,17:58:46
54,mount gambier,-37.8333,140.7667,14.75,76,93,4.09,AU,2023-06-04,17:59:44
55,osinniki,53.6239,87.3598,20.61,84,90,1.31,RU,2023-06-04,18:10:19
56,usman',52.0466,39.7288,13.02,67,10,2.25,RU,2023-06-04,18:10:20
57,santiago de cao,-7.9589,-79.2392,24.07,78,100,3.09,PE,2023-06-04,18:10:20
58,kavieng,-2.5744,150.7967,27.37,77,27,3.19,PG,2023-06-04,18:03:28
59,suva,-18.1416,178.4415,23.71,88,75,1.03,FJ,2023-06-04,18:03:57
60,arica,-18.475,-70.3042,22.75,60,0,5.66,CL,2023-06-04,18:03:44
61,inhambane,-23.865,35.3833,25.0,88,0,7.15,MZ,2023-06-04,18:04:15
62,robinson,31.4677,-97.1147,28.81,64,0,4.12,US,2023-06-04,18:10:21
63,kargasok,59.0556,80.8572,23.84,39,24,4.99,RU,2023-06-04,18:10:21
64,abepura,-2.6333,140.5833,23.45,88,20,1.03,ID,2023-06-04,18:03:30
65,urcos,-13.6861,-71.6228,21.94,31,1,2.34,PE,2023-06-04,18:10:21
66,puerto baquerizo moreno,-0.9,-89.6,27.55,83,75,9.26,EC,2023-06-04,18:02:32
67,petropavlovsk-kamchatsky,53.0452,158.6483,3.33,100,75,1.0,RU,2023-06-04,18:03:25
68,anadyr,64.75,177.4833,6.28,65,0,6.0,RU,2023-06-04,18:03:10
69,kotovo,50.3211,44.8012,14.19,63,4,5.38,RU,2023-06-04,18:10:22
70,nagqu,31.5,92.0,4.06,22,49,1.41,CN,2023-06-04,18:03:39
71,acarau,-2.8856,-40.12,30.07,64,63,6.55,BR,2023-06-04,18:04:03
72,lazaro cardenas,17.9583,-102.2,30.35,57,82,4.14,MX,2023-06-04,18:08:07
73,kindu,-2.95,25.95,25.75,70,98,1.58,CD,2023-06-04,18:10:22
74,iskateley,67.6803,53.1512,15.46,83,81,1.7,RU,2023-06-04,18:03:22
75,merizo village,13.2658,144.6691,27.31,83,100,4.98,GU,2023-06-04,18:07:56
76,claver,9.5725,125.7331,25.68,89,96,2.17,PH,2023-06-04,18:10:23
77,puerto ayora,-0.7393,-90.3518,26.97,92,67,3.58,EC,2023-06-04,18:02:06
78,ushuaia,-54.8,-68.3,4.81,70,40,8.23,AR,2023-06-04,18:03:04
79,mbandaka,0.0487,18.2603,24.91,78,76,1.93,CD,2023-06-04,18:10:23
80,fortaleza,-3.7227,-38.5247,30.07,62,20,5.66,BR,2023-06-04,18:03:24
81,hawaiian paradise park,19.5933,-154.9731,23.83,89,40,0.0,US,2023-06-04,18:03:03
82,yellowknife,62.456,-114.3525,21.29,60,40,4.12,CA,2023-06-04,18:01:18
83,waitangi,-43.9535,-176.5597,12.12,89,100,2.24,NZ,2023-06-04,18:03:08
84,keflavik,64.0049,-22.5624,10.24,81,75,9.26,IS,2023-06-04,18:03:58
85,iquique,-20.2208,-70.1431,20.02,66,1,1.43,CL,2023-06-04,18:10:24
86,verkhovazh'ye,60.7472,42.0465,8.88,80,100,3.58,RU,2023-06-04,18:10:24
87,quepos,9.4236,-84.1652,30.34,69,57,2.67,CR,2023-06-04,18:10:24
88,colonia,50.9333,6.95,24.42,28,0,6.17,DE,2023-06-04,18:03:27
89,suntar,62.1444,117.6319,5.91,66,74,3.81,RU,2023-06-04,18:10:25
90,lorengau,-2.0226,147.2712,27.14,80,55,3.36,PG,2023-06-04,18:08:01
91,sao mateus do sul,-25.8742,-50.3828,23.08,38,5,1.16,BR,2023-06-04,18:07:50
92,port lincoln,-34.7333,135.8667,16.36,80,100,4.91,AU,2023-06-04,18:04:10
93,kodiak,57.79,-152.4072,6.73,93,100,5.14,US,2023-06-04,18:03:01
94,polyarnyye zori,67.3661,32.4981,5.89,58,97,3.87,RU,2023-06-04,18:10:25
95,fort bragg,35.139,-79.006,20.67,66,100,4.63,US,2023-06-04,18:03:23
96,avarua,-21.2078,-159.775,22.03,73,40,2.06,CK,2023-06-04,17:58:52
97,puerto natales,-51.7236,-72.4875,6.25,61,40,1.03,CL,2023-06-04,18:02:12
98,talnakh,69.4865,88.3972,4.16,89,72,1.84,RU,2023-06-04,18:03:01
99,kihoku-cho,33.2559,132.6834,16.35,69,98,1.45,JP,2023-06-04,18:10:26
100,port elizabeth,-33.918,25.5701,11.72,81,0,1.03,ZA,2023-06-04,18:03:12
101,greymouth,-42.4667,171.2,7.11,85,87,5.35,NZ,2023-06-04,18:03:08
102,seryshevo,51.0933,128.3786,12.41,53,29,1.9,RU,2023-06-04,18:10:27
103,ancud,-41.8697,-73.8203,9.68,76,89,4.63,CL,2023-06-04,18:08:21
104,badger,64.8,-147.5333,12.93,65,75,1.54,US,2023-06-04,18:03:38
105,souillac,-20.5167,57.5167,25.21,73,20,5.66,MU,2023-06-04,18:04:08
106,lavelanet,42.9313,1.8466,22.25,61,57,0.89,FR,2023-06-04,18:10:27
107,invercargill,-46.4,168.35,6.59,80,91,2.08,NZ,2023-06-04,18:03:23
108,tolanaro,-25.0319,46.9987,23.04,73,0,5.14,MG,2023-06-04,18:03:52
109,punta arenas,-53.15,-70.9167,6.06,65,0,4.12,CL,2023-06-04,18:03:48
110,hasaki,35.7333,140.8333,18.45,75,100,1.58,JP,2023-06-04,18:07:44
111,melipilla,-33.7,-71.2167,15.45,38,77,1.97,CL,2023-06-04,18:07:33
112,aldinga beach,-35.2793,138.4604,20.37,70,86,6.64,AU,2023-06-04,18:07:16
113,tangalle,6.024,80.7911,26.05,90,68,4.9,LK,2023-06-04,18:10:28
114,east london,-33.0153,27.9116,11.52,93,0,2.57,ZA,2023-06-04,18:04:06
115,san patricio,28.017,-97.5169,31.2,44,91,2.59,US,2023-06-04,18:03:17
116,victoria,22.2855,114.1577,29.42,84,85,5.36,HK,2023-06-04,18:10:29
117,utrik,11.2278,169.8474,26.96,82,98,8.48,MH,2023-06-04,18:03:17
118,dom pedro,-4.4833,-44.45,33.29,44,43,3.06,BR,2023-06-04,18:10:29
119,carutapera,-1.195,-46.02,28.65,73,42,4.31,BR,2023-06-04,18:04:22
120,mount pearl,47.5166,-52.7813,6.19,97,100,5.66,CA,2023-06-04,18:02:13
121,svetlyy,54.675,20.1347,15.03,63,35,1.74,RU,2023-06-04,18:04:14
122,okhotsk,59.3833,143.3,7.82,86,94,2.12,RU,2023-06-04,18:03:41
123,watseka,40.7762,-87.7364,27.85,37,19,5.86,US,2023-06-04,18:10:30
124,weno,7.4515,151.8468,28.48,79,64,2.53,FM,2023-06-04,18:04:05
125,puerto armuelles,8.2833,-82.8667,30.99,67,70,2.24,PA,2023-06-04,18:10:30
126,tarakan,3.3,117.6333,27.58,77,97,1.19,ID,2023-06-04,18:10:31
127,nyurba,63.2842,118.3319,7.07,62,37,4.19,RU,2023-06-04,18:10:31
128,flin flon,54.7682,-101.865,17.91,88,100,5.14,CA,2023-06-04,18:08:09
129,susuman,62.7833,148.1667,9.78,75,100,1.48,RU,2023-06-04,18:03:17
130,lompoc,34.6391,-120.4579,16.08,85,100,2.06,US,2023-06-04,18:07:10
131,coahuayana de hidalgo,18.7,-103.6583,31.23,56,64,3.12,MX,2023-06-04,18:03:06
132,posse,-14.0931,-46.3694,29.39,28,0,2.49,BR,2023-06-04,18:10:32
133,margaret river,-33.95,115.0667,13.95,70,99,8.26,AU,2023-06-04,18:03:14
134,howrah,22.5892,88.3103,31.0,79,20,6.69,IN,2023-06-04,18:04:29
135,nantucket,41.2835,-70.0995,13.08,77,75,9.77,US,2023-06-04,18:10:32
136,dunedin,-45.8742,170.5036,6.01,83,72,3.54,NZ,2023-06-04,18:08:34
137,cabedelo,-6.9811,-34.8339,29.37,77,53,7.05,BR,2023-06-04,18:08:43
138,ulysses,37.5814,-101.3552,21.53,50,100,2.55,US,2023-06-04,18:10:33
139,yantzaza,-3.8278,-78.7594,28.12,84,50,0.94,EC,2023-06-04,18:10:33
140,taulaga,-11.0553,-171.0883,28.33,66,81,6.1,AS,2023-06-04,18:07:55
141,hilo,19.7297,-155.09,24.6,74,40,0.0,US,2023-06-04,18:03:01
142,gopalpur,19.2667,84.9167,28.14,84,72,0.26,IN,2023-06-04,18:10:33
143,malvan,16.0667,73.4667,29.12,83,95,2.95,IN,2023-06-04,18:10:34
144,thinadhoo,0.5333,72.9333,28.56,74,100,3.03,MV,2023-06-04,18:10:34
145,port alfred,-33.5906,26.891,15.47,58,12,4.51,ZA,2023-06-04,18:04:34
146,kyren,51.6828,102.1408,12.46,73,47,1.12,RU,2023-06-04,18:10:34
147,alofi,-19.0595,-169.9187,24.08,73,73,6.86,NU,2023-06-04,18:01:32
148,razdol'noye,45.7708,33.4878,16.69,56,79,5.17,UA,2023-06-04,18:10:34
149,coquimbo,-29.9533,-71.3436,19.85,59,0,2.57,CL,2023-06-04,18:02:14
150,dolores,-36.3132,-57.6792,13.51,52,96,4.33,AR,2023-06-04,18:10:34
151,tura,25.5198,90.2201,26.98,43,0,1.78,IN,2023-06-04,18:03:43
152,zambezi,-13.5432,23.1047,19.22,34,19,1.05,ZM,2023-06-04,18:03:31
153,little mountain,41.2444,-112.2547,22.84,49,29,1.4,US,2023-06-04,18:10:35
154,kailua-kona,19.6406,-155.9956,25.98,73,40,1.54,US,2023-06-04,18:03:29
155,cutral-co,-38.9469,-69.2089,12.17,39,48,0.89,AR,2023-06-04,18:10:35
156,haiku-pauwela,20.9219,-156.3051,23.91,67,40,2.68,US,2023-06-04,18:04:29
157,ponta delgada,37.7333,-25.6667,22.4,78,20,5.66,PT,2023-06-04,18:10:35
158,neryungri,56.6709,124.6491,8.57,90,89,3.12,RU,2023-06-04,18:10:35
159,la ronge,55.1001,-105.2842,20.12,88,100,5.14,CA,2023-06-04,18:07:57
160,nova vicosa,-17.8919,-39.3719,24.63,63,41,3.46,BR,2023-06-04,18:03:26
161,chamical,-30.36,-66.314,17.51,81,100,3.93,AR,2023-06-04,18:10:36
162,fort abbas,29.1925,72.8536,34.7,34,2,2.94,PK,2023-06-04,18:10:36
163,north bondi,-33.8824,151.2769,16.03,75,75,4.63,AU,2023-06-04,18:10:36
164,tamanrasset,22.785,5.5228,31.95,8,0,8.75,DZ,2023-06-04,18:08:14
165,kariba,-16.5167,28.8,21.81,37,0,2.54,ZW,2023-06-04,18:10:36
166,villamontes,-21.25,-63.5,25.51,57,50,3.28,BO,2023-06-04,18:07:14
167,veraval,20.9,70.3667,28.92,84,0,5.27,IN,2023-06-04,18:10:37
168,klaksvik,62.2266,-6.589,11.51,79,17,8.29,FO,2023-06-04,18:10:37
169,georgetown,5.4112,100.3354,28.96,86,20,0.51,MY,2023-06-04,18:00:17
170,sidi khaled,34.387,4.9879,30.21,31,68,4.96,DZ,2023-06-04,18:07:28
171,al muwayh,22.4333,41.7583,28.16,37,63,9.45,SA,2023-06-04,18:08:36
172,nova sintra,14.8667,-24.7167,20.7,80,3,3.28,CV,2023-06-04,18:03:02
173,talara,-4.5772,-81.2719,29.42,61,20,7.2,PE,2023-06-04,18:07:53
174,dhalie,13.6957,44.7314,22.76,73,91,1.27,YE,2023-06-04,18:10:38
175,balassagyarmat,48.073,19.2961,15.83,68,100,0.88,HU,2023-06-04,18:10:38
176,igarka,67.4667,86.5833,10.03,80,100,5.96,RU,2023-06-04,18:08:15
177,tateyama,34.9833,139.8667,20.0,82,95,4.7,JP,2023-06-04,18:10:38
178,bubaque,11.2833,-15.8333,27.28,73,29,6.6,GW,2023-06-04,18:03:02
179,sitka,57.0531,-135.33,10.94,82,75,2.06,US,2023-06-04,18:03:31
180,lake geneva,42.5917,-88.4334,26.7,31,0,5.66,US,2023-06-04,18:10:38
181,vilyuchinsk,52.9306,158.4028,5.14,96,100,3.62,RU,2023-06-04,18:10:39
182,villa huidobro,-34.8383,-64.5869,17.19,17,98,3.55,AR,2023-06-04,18:10:39
183,masterton,-40.9597,175.6575,11.05,99,98,1.88,NZ,2023-06-04,18:10:39
184,kidal,18.4411,1.4078,39.22,11,7,6.0,ML,2023-06-04,18:08:33
185,ust'-uda,54.1742,103.0304,12.01,62,69,1.62,RU,2023-06-04,18:10:39
186,taikang,46.8333,124.4167,16.21,54,65,1.86,CN,2023-06-04,18:10:39
187,chittur,10.7,76.75,25.7,82,100,1.87,IN,2023-06-04,18:10:39
188,whitehorse,60.7161,-135.0538,13.23,52,40,2.57,CA,2023-06-04,17:59:47
189,auki,-8.7676,160.7034,25.22,87,98,1.68,SB,2023-06-04,18:10:40
190,usinsk,65.9939,57.5281,18.43,68,56,6.49,RU,2023-06-04,18:04:09
191,plettenberg bay,-34.0527,23.3716,13.75,61,22,4.4,ZA,2023-06-04,18:03:23
192,ambovombe,-25.1667,46.0833,22.63,73,100,2.72,MG,2023-06-04,18:10:40
193,puente alto,-33.6167,-70.5833,22.19,40,40,1.03,CL,2023-06-04,18:10:40
194,margahayukencana,-6.9708,107.5675,21.63,93,100,0.91,ID,2023-06-04,18:10:40
195,sidi ifni,29.3797,-10.173,20.85,76,37,5.76,MA,2023-06-04,18:10:41
196,boende,-0.2167,20.8667,22.81,96,92,0.67,CD,2023-06-04,18:04:06
197,sol'tsy,58.1239,30.3238,9.13,96,79,2.39,RU,2023-06-04,18:10:41
198,labytnangi,66.6572,66.4183,14.25,70,81,5.21,RU,2023-06-04,18:08:19
199,urangan,-25.3,152.9,20.81,77,100,7.26,AU,2023-06-04,18:03:04
200,ust-nera,64.5667,143.2,10.58,56,42,2.27,RU,2023-06-04,18:03:27
201,college,64.8569,-147.8028,12.97,67,75,1.54,US,2023-06-04,18:03:17
202,houma,29.5958,-90.7195,33.33,60,0,2.57,US,2023-06-04,18:07:29
203,prince rupert,54.3161,-130.3201,10.05,78,0,5.66,CA,2023-06-04,18:03:11
204,new norfolk,-42.7826,147.0587,2.06,81,19,1.28,AU,2023-06-04,18:03:06
205,salalah,17.0151,54.0924,28.64,79,3,2.72,OM,2023-06-04,18:03:12
206,qandala,11.472,49.8728,31.14,62,63,1.52,SO,2023-06-04,18:10:42
207,morehead city,34.7229,-76.726,21.03,74,40,6.69,US,2023-06-04,18:04:13
208,yonggwang-up,40.0183,127.4547,14.27,67,0,2.81,KP,2023-06-04,18:10:42
209,vasylivka,47.4369,35.2742,14.56,60,0,5.62,UA,2023-06-04,18:10:43
210,tefe,-3.3542,-64.7114,30.06,70,20,2.57,BR,2023-06-04,18:10:43
211,escanaba,45.7453,-87.0646,26.95,52,0,2.06,US,2023-06-04,18:10:43
212,uturoa,-16.7333,-151.4333,26.05,72,57,5.42,PF,2023-06-04,18:03:43
213,nar'yan-mar,67.6713,53.087,15.49,84,81,1.69,RU,2023-06-04,18:03:53
214,summerside,46.3959,-63.7876,10.94,93,99,8.23,CA,2023-06-04,18:00:10
215,arrifes,37.7667,-25.7,21.14,78,20,5.66,PT,2023-06-04,18:07:33
216,ta`u,-14.2336,-169.5144,27.13,72,92,5.74,AS,2023-06-04,18:03:39
217,saipan,15.1355,145.701,27.03,100,40,4.47,MP,2023-06-04,18:03:39
218,margate,51.3813,1.3862,13.72,77,3,5.36,GB,2023-06-04,18:10:44
219,nouadhibou,20.931,-17.0347,23.99,69,0,7.72,MR,2023-06-04,18:04:33
220,tual,-5.6667,132.75,27.24,80,32,8.67,ID,2023-06-04,18:04:08
221,happy valley-goose bay,53.3168,-60.3315,20.17,21,20,0.0,CA,2023-06-04,18:03:30
222,mogadishu,2.0371,45.3438,26.75,81,70,6.36,SO,2023-06-04,18:08:54
223,tarawa,1.419,172.984,28.05,83,40,2.06,KI,2023-06-04,18:10:44
224,conduaga,8.862,117.4893,26.42,85,100,2.09,PH,2023-06-04,18:10:44
225,arraial do cabo,-22.9661,-42.0278,24.98,78,0,5.14,BR,2023-06-04,18:03:14
226,carnarvon,-24.8667,113.6333,19.16,64,1,4.47,AU,2023-06-04,18:04:27
227,tuensang,26.2833,94.8333,22.49,66,55,0.43,IN,2023-06-04,18:10:45
228,vorgashor,67.5833,63.95,15.8,64,79,5.2,RU,2023-06-04,18:03:43
229,manta,-0.95,-80.7333,28.88,74,75,7.6,EC,2023-06-04,18:06:36
230,ribeira grande,38.5167,-28.7,22.22,78,20,4.12,PT,2023-06-04,18:03:23
231,nemuro,43.3236,145.575,8.34,89,72,1.45,JP,2023-06-04,18:04:35
232,dingli,35.8614,14.3822,20.45,88,40,5.66,MT,2023-06-04,18:10:45
233,egilsstadir,65.2653,-14.3948,15.95,51,75,5.66,IS,2023-06-04,18:03:27
234,tazovsky,67.4667,78.7,10.47,62,98,5.48,RU,2023-06-04,18:03:30
235,mossel bay,-34.1831,22.146,12.81,81,52,12.61,ZA,2023-06-04,18:08:48
236,jeddah,21.5169,39.2192,33.92,40,0,1.54,SA,2023-06-04,18:06:30
237,adam,22.3756,57.5233,32.68,33,0,3.87,OM,2023-06-04,18:04:03
238,nogliki,51.8333,143.1667,2.99,90,100,2.95,RU,2023-06-04,18:03:40
239,mahibadhoo,3.7833,72.9667,28.13,78,100,7.23,MV,2023-06-04,18:10:46
240,alice springs,-23.7,133.8833,8.75,100,75,0.0,AU,2023-06-04,18:03:03
241,chibougamau,49.9168,-74.3659,20.79,19,20,1.54,CA,2023-06-04,18:02:19
242,san antonio de pale,-1.4014,5.6325,25.68,89,92,4.44,GQ,2023-06-04,18:03:24
243,mesyagutovo,55.5303,58.2528,15.61,96,85,0.85,RU,2023-06-04,18:10:47
244,st. john's,47.5649,-52.7093,6.66,97,100,5.66,CA,2023-06-04,18:03:32
245,shanwei,22.782,115.3475,27.21,82,29,4.11,CN,2023-06-04,18:10:47
246,namie,37.4833,141.0,18.32,63,28,1.88,JP,2023-06-04,18:10:47
247,chimbote,-9.0853,-78.5783,24.23,69,57,4.46,PE,2023-06-04,18:10:47
248,bure,10.7,37.0667,17.52,72,100,1.4,ET,2023-06-04,18:10:48
249,sao vicente,-23.9631,-46.3919,30.1,69,1,1.34,BR,2023-06-04,18:08:51
250,ipueiras,-7.0333,-40.45,29.34,43,95,6.59,BR,2023-06-04,18:10:48
251,ilha de mocambique,-15.0342,40.7358,26.22,76,1,5.96,MZ,2023-06-04,18:10:48
252,sesheke,-17.4759,24.2968,21.91,27,3,2.72,ZM,2023-06-04,18:10:48
253,rano,11.5491,8.5746,32.28,38,100,5.14,NG,2023-06-04,18:10:48
254,azemmour,33.2895,-8.3425,21.13,70,20,5.3,MA,2023-06-04,18:10:49
255,muli,2.9167,73.5667,27.37,81,100,7.53,MV,2023-06-04,18:10:49
256,poletayevo,55.0336,61.1138,19.9,88,75,3.56,RU,2023-06-04,18:10:49
257,pariaman,-0.619,100.12,26.03,89,86,1.66,ID,2023-06-04,18:10:49
258,muzo,5.5353,-74.1078,29.98,53,23,1.88,CO,2023-06-04,18:10:49
259,constitucion,-35.3333,-72.4167,13.14,72,79,8.08,CL,2023-06-04,18:00:12
260,dhidhdhoo,6.8833,73.1,28.18,80,99,9.21,MV,2023-06-04,18:04:28
261,portarlington,53.1622,-7.1911,20.67,50,0,3.58,IE,2023-06-04,18:10:50
262,selfoss,63.9331,-20.9971,11.14,94,100,5.43,IS,2023-06-04,18:03:50
263,brokopondo,4.75,-55.1667,29.03,69,63,2.25,SR,2023-06-04,18:10:50
264,ouadda,8.0777,22.4007,21.98,90,98,1.17,CF,2023-06-04,18:10:50
265,fortuna,40.5982,-124.1573,14.81,94,20,2.06,US,2023-06-04,18:03:36
266,cidreira,-30.1811,-50.2056,24.22,58,30,0.37,BR,2023-06-04,18:10:51
267,flying fish cove,-10.4217,105.6791,24.82,83,100,4.12,CX,2023-06-04,18:03:38
268,port moresby,-9.4431,147.1797,24.68,100,40,1.54,PG,2023-06-04,18:03:53
269,ungsang-nodongjagu,42.3578,130.4622,14.05,59,2,2.22,KP,2023-06-04,18:10:51
270,mar del plata,-38.0023,-57.5575,15.53,56,3,2.68,AR,2023-06-04,18:08:34
271,oistins,13.0667,-59.5333,31.05,74,40,6.17,BB,2023-06-04,18:10:51
272,bathsheba,13.2167,-59.5167,31.34,74,40,6.17,BB,2023-06-04,18:03:14
273,kutum,14.2,24.6667,28.5,40,67,4.75,SD,2023-06-04,18:10:52
274,rio grande,-32.035,-52.0986,25.06,91,97,4.08,BR,2023-06-04,18:03:17
275,guerrero negro,27.9769,-114.0611,19.44,61,90,7.39,MX,2023-06-04,18:03:52
276,lycksele,64.5954,18.6735,11.93,50,75,5.14,SE,2023-06-04,18:10:52
277,longgang,37.6508,120.3286,20.87,57,98,8.44,CN,2023-06-04,18:10:52
278,sinop,41.7711,34.8709,14.39,98,100,1.92,TR,2023-06-04,18:10:52
279,berbera,10.4396,45.0143,32.65,60,16,3.33,SO,2023-06-04,18:10:52
280,camargo,27.6667,-105.1667,30.31,16,47,2.85,MX,2023-06-04,18:10:53
281,vila velha,-20.3297,-40.2925,25.97,70,0,3.6,BR,2023-06-04,18:03:47
282,newnham,-41.3833,147.1333,5.18,96,32,3.09,AU,2023-06-04,18:10:53
283,ad dawadimi,24.5077,44.3924,32.69,15,24,3.85,SA,2023-06-04,18:10:53
284,palenque,17.5167,-91.9667,31.09,66,75,0.0,MX,2023-06-04,18:08:51
285,broken hill,-31.95,141.4333,15.63,86,100,9.7,AU,2023-06-04,18:03:34
286,kuta,-8.7233,115.1723,26.97,83,40,3.6,ID,2023-06-04,18:10:53
287,klyuchi,52.2667,79.1667,24.22,46,0,2.78,RU,2023-06-04,18:03:47
288,belyy yar,53.6039,91.3903,14.94,77,0,1.0,RU,2023-06-04,18:10:54
289,las vegas,36.175,-115.1372,33.48,16,0,3.09,US,2023-06-04,18:08:30
290,petrosino,37.7077,12.4999,22.7,70,100,1.41,IT,2023-06-04,18:10:54
291,coxen hole,16.3244,-86.5366,32.6,58,20,4.12,HN,2023-06-04,18:10:54
292,plouzane,48.3833,-4.6167,22.03,58,0,6.69,FR,2023-06-04,18:10:54
293,brisas de zicatela,15.8369,-97.0419,33.29,66,0,4.63,MX,2023-06-04,18:08:42
294,labrador city,52.9463,-66.9114,20.27,19,63,2.87,CA,2023-06-04,18:08:34
295,vegreville,53.5001,-112.0518,21.45,64,84,3.32,CA,2023-06-04,18:10:37
296,port mathurin,-19.6833,63.4167,24.89,79,25,11.96,MU,2023-06-04,18:03:10
297,crane,31.3974,-102.3501,26.4,42,25,4.77,US,2023-06-04,18:03:03
298,vernon,50.2581,-119.2691,24.78,26,0,2.06,CA,2023-06-04,18:03:46
299,shijiang,27.0819,110.7933,23.41,96,28,2.2,CN,2023-06-04,18:10:55
300,mandalgovi,45.7625,106.2708,12.54,57,7,2.85,MN,2023-06-04,18:04:17
301,oliveira dos brejinhos,-12.3169,-42.8961,32.11,23,0,1.97,BR,2023-06-04,18:10:55
302,snowflake,34.5134,-110.0785,27.18,17,7,2.35,US,2023-06-04,18:10:56
303,almazan,41.4865,-2.5309,19.73,50,83,3.07,ES,2023-06-04,18:10:56
304,mawu,29.5923,107.3139,18.31,98,100,1.14,CN,2023-06-04,18:10:56
305,hotan,37.0997,79.9269,21.01,28,22,1.31,CN,2023-06-04,18:04:34
306,atafu village,-8.5421,-172.5159,28.39,76,47,5.42,TK,2023-06-04,18:03:12
307,priargunsk,50.3691,119.1012,13.56,46,70,2.64,RU,2023-06-04,18:10:56
308,faya-largeau,17.9257,19.1043,37.74,20,21,2.01,TD,2023-06-04,18:03:19
309,afaahiti,-17.75,-149.2833,24.93,74,88,4.8,PF,2023-06-04,18:03:46
310,bogotol,56.2078,89.5342,15.83,67,28,2.68,RU,2023-06-04,18:10:57
311,san fernando,15.0286,120.6898,25.59,89,100,0.5,PH,2023-06-04,18:10:57
312,al ghayzah,16.2079,52.176,28.89,76,0,5.05,YE,2023-06-04,18:03:22
313,cafayate,-26.073,-65.9761,19.27,54,17,3.11,AR,2023-06-04,18:10:31
314,chakradharpur,22.7,85.6333,29.83,42,63,2.11,IN,2023-06-04,18:10:57
315,tomatlan,19.9333,-105.25,33.41,40,1,3.68,MX,2023-06-04,18:08:23
316,port hedland,-20.3167,118.5667,15.03,77,2,3.6,AU,2023-06-04,18:10:58
317,naracoorte,-36.9579,140.7383,14.42,77,94,6.44,AU,2023-06-04,18:10:58
318,kermit,31.8576,-103.0927,27.8,39,40,2.06,US,2023-06-04,18:10:58
319,bodo,67.28,14.405,7.1,99,40,11.32,NO,2023-06-04,18:10:58
320,nola,40.922,14.5329,23.23,73,100,2.07,IT,2023-06-04,18:10:58
321,sabang,5.8933,95.3214,28.59,77,94,10.48,ID,2023-06-04,18:10:58
322,veinticinco de mayo,-35.4323,-60.1727,15.55,37,95,2.68,AR,2023-06-04,18:10:58
323,rockford,42.2711,-89.094,28.62,39,20,3.09,US,2023-06-04,18:05:41
324,metlili chaamba,32.2667,3.6333,29.52,26,40,8.23,DZ,2023-06-04,18:03:56
325,kokopo,-4.352,152.2633,24.68,86,31,2.52,PG,2023-06-04,18:10:17
326,gadzhiyevo,69.2551,33.3362,4.49,66,95,5.38,RU,2023-06-04,18:03:09
327,copala,16.65,-98.9833,31.94,53,0,4.63,MX,2023-06-04,18:10:59
328,dudinka,69.4058,86.1778,3.35,81,3,6.7,RU,2023-06-04,18:04:18
329,gizo,-8.103,156.8419,27.31,79,36,1.8,SB,2023-06-04,18:10:59
330,ola,59.5833,151.2833,6.75,68,59,1.59,RU,2023-06-04,18:04:19
331,chilliwack,49.1747,-121.9443,20.76,50,1,2.68,CA,2023-06-04,18:10:59
332,brookings,44.3114,-96.7984,30.14,49,20,3.6,US,2023-06-04,18:03:58
333,forster,-32.1667,152.5167,14.05,93,100,4.21,AU,2023-06-04,18:11:00
334,kindia,10.0569,-12.8658,28.05,77,96,1.06,GN,2023-06-04,18:11:00
335,kudahuvadhoo,2.6708,72.8944,27.95,75,100,5.05,MV,2023-06-04,18:08:00
336,geraldton,-28.7667,114.6,18.23,88,40,8.23,AU,2023-06-04,18:03:15
337,kayangel,8.0823,134.7173,27.66,82,100,6.43,PW,2023-06-04,18:03:39
338,opmeer,52.7067,4.9444,17.78,68,61,2.68,NL,2023-06-04,18:11:00
339,kimbe,-5.5502,150.1429,23.77,93,46,1.66,PG,2023-06-04,18:10:17
340,novoanninskiy,50.5287,42.6747,14.75,55,0,3.68,RU,2023-06-04,18:11:01
341,lucapa,-8.4192,20.7447,23.67,32,99,1.52,AO,2023-06-04,18:11:01
342,xai-xai,-25.0519,33.6442,22.64,78,7,3.03,MZ,2023-06-04,18:11:01
343,lockwood,45.8191,-108.4149,20.47,76,75,2.06,US,2023-06-04,18:11:01
344,wynyard,-41.0,145.7167,11.1,71,100,5.94,AU,2023-06-04,18:04:00
345,policka,49.7146,16.2654,17.28,56,61,0.45,CZ,2023-06-04,18:11:01
346,nueva imperial,-38.7333,-72.95,13.36,63,80,1.46,CL,2023-06-04,18:11:02
347,moose jaw,50.4001,-105.5344,28.14,47,3,1.54,CA,2023-06-04,18:00:04
348,havre,49.5833,0.3333,20.75,55,0,8.23,FR,2023-06-04,18:11:02
349,kurakhovo,47.9852,37.2821,11.6,75,0,4.29,UA,2023-06-04,18:11:02
350,shengli,37.4564,118.4856,21.73,66,69,5.1,CN,2023-06-04,18:11:02
351,kruisfontein,-34.0033,24.7314,10.49,66,7,2.57,ZA,2023-06-04,18:11:02
352,chernyshevskiy,63.0128,112.4714,3.23,80,90,3.25,RU,2023-06-04,18:08:49
353,amga,60.8953,131.9608,8.91,90,32,1.21,RU,2023-06-04,18:11:03
354,lautoka,-17.6167,177.4667,20.92,88,20,1.54,FJ,2023-06-04,18:04:33
355,sungailiat,-1.85,106.1333,26.72,85,86,3.21,ID,2023-06-04,18:07:18
356,alto barinas,8.5931,-70.2261,32.52,52,43,3.54,VE,2023-06-04,18:11:03
357,yerofey pavlovich,53.9667,121.9667,10.56,77,58,2.18,RU,2023-06-04,18:03:55
358,gulf shores,30.246,-87.7008,32.85,57,40,3.09,US,2023-06-04,18:11:04
359,mazatlan,23.2167,-106.4167,29.98,78,75,2.06,MX,2023-06-04,18:11:04
360,pitimbu,-7.4706,-34.8086,29.33,76,46,6.73,BR,2023-06-04,18:07:08
361,temiskaming shores,47.4938,-79.7153,24.73,26,25,2.17,CA,2023-06-04,18:11:04
362,naze,28.3667,129.4833,19.51,70,45,1.24,JP,2023-06-04,18:04:14
363,pedro juan caballero,-22.5472,-55.7333,26.98,54,20,0.0,PY,2023-06-04,18:11:04
364,callao,-12.0667,-77.15,25.4,68,100,5.66,PE,2023-06-04,18:03:18
365,ngereklmadel,7.4883,134.4856,24.05,94,100,3.6,PW,2023-06-04,18:11:05
366,horta,38.5333,-28.6333,21.8,79,20,4.12,PT,2023-06-04,18:08:54
367,sathupalli,17.2497,80.869,31.39,47,97,2.81,IN,2023-06-04,18:11:05
368,korsakov,46.6328,142.7813,5.47,94,100,3.5,RU,2023-06-04,18:11:05
369,kapa'a,22.0752,-159.319,25.99,87,20,1.54,US,2023-06-04,18:03:36
370,reggane,26.7158,0.1714,36.98,10,1,5.48,DZ,2023-06-04,18:03:38
371,kapuskasing,49.4169,-82.4331,27.0,22,100,2.57,CA,2023-06-04,18:01:04
372,mahina,-17.5065,-149.489,25.87,73,40,0.51,PF,2023-06-04,18:03:14
373,abra pampa,-22.7205,-65.697,15.68,6,5,1.43,AR,2023-06-04,18:11:06
374,usogorsk,63.4106,48.6872,6.71,80,56,3.62,RU,2023-06-04,18:03:07
375,kismayo,-0.3582,42.5454,26.82,78,100,5.44,SO,2023-06-04,18:03:38
376,nzerekore,7.7562,-8.8179,24.58,86,99,2.25,GN,2023-06-04,18:08:54
377,ketchikan,55.3422,-131.6461,10.26,87,100,2.06,US,2023-06-04,18:08:00
378,revelstoke,50.9832,-118.2023,26.88,31,1,2.09,CA,2023-06-04,18:11:06
379,nadi,-17.8,177.4167,21.0,88,20,1.54,FJ,2023-06-04,18:11:06
380,la tuque,47.4334,-72.7824,22.14,18,1,5.14,CA,2023-06-04,18:11:06
381,punta gorda,26.9298,-82.0454,32.22,72,40,4.63,US,2023-06-04,18:11:07
382,hawkesbury,45.6001,-74.616,19.16,50,18,5.93,CA,2023-06-04,18:11:07
383,tromso,69.6496,18.957,7.01,81,75,7.72,NO,2023-06-04,18:00:39
384,puerto colombia,10.9878,-74.9547,30.17,70,98,2.47,CO,2023-06-04,18:11:07
385,argo,37.6333,22.7333,24.32,59,48,0.98,GR,2023-06-04,18:11:07
386,luganville,-15.5333,167.1667,25.14,86,88,4.75,VU,2023-06-04,18:11:08
387,batouri,4.4333,14.3667,24.75,76,84,0.95,CM,2023-06-04,18:11:08
388,seosan,36.7817,126.4522,17.11,81,100,2.36,KR,2023-06-04,18:11:08
389,vorkuta,67.5,64.0,15.97,64,81,5.65,RU,2023-06-04,18:08:08
390,diglur,18.55,77.6,32.25,38,36,2.93,IN,2023-06-04,18:09:12
391,gaspe,48.8334,-64.4819,11.12,62,75,2.57,CA,2023-06-04,18:01:03
392,tera,14.0078,0.7531,38.56,27,51,2.88,NE,2023-06-04,18:11:08
393,wuyang,31.9925,116.2472,17.55,94,100,2.97,CN,2023-06-04,18:11:08
394,adis zemen,12.1167,37.7833,19.46,73,100,2.02,ET,2023-06-04,18:03:16
395,pavlodar,52.3,76.95,22.89,33,0,5.0,KZ,2023-06-04,18:11:09
396,onguday,50.75,86.15,14.1,81,38,0.81,RU,2023-06-04,18:03:20
397,la jolla,32.8473,-117.2742,23.6,81,100,3.09,US,2023-06-04,18:01:13
398,santa vitoria do palmar,-33.5189,-53.3681,19.85,84,96,3.76,BR,2023-06-04,18:07:19
399,preobrazheniye,42.9019,133.9064,10.92,79,12,3.26,RU,2023-06-04,18:03:41
400,lichuan,30.3,108.85,16.62,99,100,1.22,CN,2023-06-04,18:11:09
401,val-d'or,48.1002,-77.7828,25.45,22,12,0.24,CA,2023-06-04,18:11:09
402,syas'stroy,60.1367,32.5691,8.15,91,79,1.21,RU,2023-06-04,18:11:10
403,yemetsk,63.4721,41.7941,5.06,84,100,3.07,RU,2023-06-04,18:11:10
404,clarence town,-32.5833,151.7833,17.14,74,100,1.55,AU,2023-06-04,18:11:10
405,remire-montjoly,4.9167,-52.2667,31.02,66,75,1.54,GF,2023-06-04,18:03:20
406,salinopolis,-0.6136,-47.3561,29.05,71,43,6.23,BR,2023-06-04,18:04:14
407,mukalla,14.5425,49.1242,29.31,80,23,1.61,YE,2023-06-04,18:11:10
408,kuqa,41.7278,82.9364,22.65,20,91,0.93,CN,2023-06-04,18:07:46
409,minas de marcona,-15.2119,-75.1103,18.75,59,21,6.16,PE,2023-06-04,18:03:49
410,ormara,25.2088,64.6357,28.32,88,0,6.55,PK,2023-06-04,18:04:30
411,guane,22.2025,-84.0875,32.45,49,7,5.33,CU,2023-06-04,18:11:11
412,hesla,24.0667,85.8833,33.0,20,5,0.56,IN,2023-06-04,18:11:11
413,baise city,23.8997,106.6133,26.07,91,78,1.28,CN,2023-06-04,18:11:11
414,beloyarskiy,63.7119,66.6722,14.93,93,100,1.4,RU,2023-06-04,18:11:11
415,pimentel,-6.8367,-79.9342,26.16,65,75,5.66,PE,2023-06-04,18:11:11
416,trapani,37.8333,12.6667,21.82,67,100,1.68,IT,2023-06-04,18:11:11
417,molde,62.7375,7.1591,12.06,71,75,6.69,NO,2023-06-04,18:11:11
418,sisimiut,66.9395,-53.6735,0.75,69,32,4.65,GL,2023-06-04,18:08:12
419,shetpe,44.1667,52.1167,25.48,44,80,4.31,KZ,2023-06-04,18:11:12
420,tadine,-21.55,167.8833,21.12,77,79,5.01,NC,2023-06-04,18:04:16
421,rongelap,11.1635,166.8941,27.51,76,98,3.28,MH,2023-06-04,18:11:12
422,nueva palestina,15.8,-92.75,33.6,43,10,1.11,MX,2023-06-04,18:11:12
423,arkhangel'sk,64.5401,40.5433,2.57,97,100,5.81,RU,2023-06-04,18:04:16
424,antsiranana,-12.2787,49.2917,24.33,73,0,7.84,MG,2023-06-04,18:03:24
425,le puy-en-velay,45.0437,3.8852,14.12,93,95,0.47,FR,2023-06-04,18:11:13
426,tongchuanshi,35.0806,109.0897,13.6,80,43,1.65,CN,2023-06-04,18:11:13
427,oral,51.2333,51.3667,21.99,56,20,4.0,KZ,2023-06-04,18:11:13
428,apatity,67.5641,33.4031,3.69,72,100,4.96,RU,2023-06-04,18:11:13
429,gisborne,-38.6533,178.0042,10.31,84,97,0.47,NZ,2023-06-04,18:11:13
430,ngetkib,7.3645,134.5148,24.14,94,100,3.6,PW,2023-06-04,18:11:13
431,mundemba,4.9479,8.8724,24.98,94,98,1.81,CM,2023-06-04,18:11:14
432,sofo-birnin-gwari,11.0154,6.7804,27.1,66,94,1.93,NG,2023-06-04,18:11:14
433,nuuk,64.1835,-51.7216,1.34,100,100,7.72,GL,2023-06-04,18:08:46
434,arkalyk,50.2486,66.9114,26.16,21,0,4.58,KZ,2023-06-04,18:11:15
435,vallenar,-28.5708,-70.7581,27.36,18,20,2.34,CL,2023-06-04,18:11:15
436,kupang,-10.1667,123.5833,24.16,80,87,4.76,ID,2023-06-04,18:03:59
437,nelson bay,-32.7167,152.15,17.22,73,100,3.13,AU,2023-06-04,18:11:15
438,walvis bay,-22.9575,14.5053,13.38,78,0,7.65,,2023-06-04,18:07:33
439,puttalam,8.0362,79.8283,27.68,84,75,7.65,LK,2023-06-04,18:09:22
440,midvagur,62.0511,-7.1939,11.46,76,75,5.14,FO,2023-06-04,18:08:10
441,carbonear,47.7332,-53.2148,6.8,92,100,4.21,CA,2023-06-04,18:08:45
442,shenjiamen,29.9576,122.298,20.94,90,91,5.77,CN,2023-06-04,18:11:16
443,holualoa,19.6228,-155.9522,23.91,73,40,1.54,US,2023-06-04,18:03:06
444,ati,13.2154,18.3353,38.69,24,37,1.83,TD,2023-06-04,18:07:55
445,khilok,51.3674,110.4676,7.9,96,46,1.94,RU,2023-06-04,18:11:16
446,villa ojo de agua,-29.5,-63.6938,12.82,85,100,12.0,AR,2023-06-04,18:11:16
447,santa barbara,34.7333,-120.0343,27.41,82,100,3.09,US,2023-06-04,18:11:16
448,ubinskoye,55.3068,79.6802,22.79,49,0,1.92,RU,2023-06-04,18:11:17
449,languyan,5.2618,120.0807,26.23,85,63,0.54,PH,2023-06-04,18:11:17
450,bontang,0.1333,117.5,25.64,88,47,2.72,ID,2023-06-04,18:08:14
451,dingcheng,32.1272,115.0394,16.77,96,100,3.05,CN,2023-06-04,18:11:17
452,tsiombe,-25.3,45.4833,21.66,81,100,1.48,MG,2023-06-04,18:03:28
453,sona,45.4388,10.8255,19.75,88,75,3.09,IT,2023-06-04,18:11:17
454,verkhnevilyuysk,63.4453,120.3167,6.61,73,64,4.35,RU,2023-06-04,18:11:17
455,babayevo,59.3936,35.9371,7.74,85,100,3.92,RU,2023-06-04,18:11:18
456,takab,36.4009,47.1133,18.38,37,1,2.36,IR,2023-06-04,18:11:18
457,dryden,49.7833,-92.7503,24.16,69,75,2.57,CA,2023-06-04,18:03:06
458,santo antonio do ica,-3.1022,-67.9397,31.18,64,35,1.34,BR,2023-06-04,18:08:08
459,luorong,24.4058,109.6086,27.29,79,34,1.48,CN,2023-06-04,18:11:18
460,sola,-13.8833,167.55,26.49,80,91,10.23,VU,2023-06-04,18:11:18
461,tours,47.4167,0.6667,25.03,36,58,4.12,FR,2023-06-04,18:11:18
462,itoman,26.1247,127.6694,24.21,88,75,0.51,JP,2023-06-04,18:04:11
463,mugia,43.1041,-9.2179,20.51,77,28,5.32,ES,2023-06-04,18:11:19
464,bryne,58.7354,5.6477,14.37,75,0,5.14,NO,2023-06-04,18:11:19
465,morshansk,53.4435,41.8107,10.12,70,7,1.54,RU,2023-06-04,18:11:19
466,bryan,30.6744,-96.37,29.34,58,0,3.09,US,2023-06-04,18:09:46
467,mombetsu,44.3525,143.3525,8.59,78,94,7.29,JP,2023-06-04,18:11:19
468,levuka,50.1834,-105.4011,27.85,57,20,2.57,CA,2023-06-04,18:11:19
469,zhezqazghan,47.7833,67.7667,24.32,20,0,3.0,KZ,2023-06-04,18:11:20
470,nobres,-14.7203,-56.3275,34.55,32,0,1.24,BR,2023-06-04,18:11:20
471,sehwan,26.4279,67.863,36.7,37,0,3.16,PK,2023-06-04,18:11:20
472,nampula,-15.1165,39.2666,22.97,83,20,4.63,MZ,2023-06-04,18:11:20
473,togur,58.3631,82.8265,21.32,56,55,3.36,RU,2023-06-04,18:11:20
474,crucecita,-28.95,-58.9833,22.66,78,96,1.21,AR,2023-06-04,18:11:20
475,bamboo flat,11.7,92.7167,28.13,77,93,6.35,IN,2023-06-04,18:08:01
476,lamu,-2.2717,40.902,25.12,83,77,5.06,KE,2023-06-04,18:04:12
477,trairi,-3.2778,-39.2689,29.64,61,97,5.78,BR,2023-06-04,18:11:21
478,ghat,24.9647,10.1728,36.5,7,0,8.65,LY,2023-06-04,18:04:17
479,island harbour,50.724,-1.2758,23.02,69,6,3.13,GB,2023-06-04,18:03:54
480,yaren,-0.5472,166.916,28.72,74,50,4.18,NR,2023-06-04,18:03:54
481,portland,45.5234,-122.6762,19.49,61,20,3.13,US,2023-06-04,18:03:19
482,egersund,58.4513,5.9997,14.45,68,10,3.33,NO,2023-06-04,18:11:21
483,balotra,25.8333,72.2333,35.07,39,1,4.73,IN,2023-06-04,18:11:22
484,puerto penasco,31.3167,-113.5333,27.17,54,10,1.34,MX,2023-06-04,18:11:22
485,arteche,12.2645,125.4048,26.23,88,69,1.29,PH,2023-06-04,18:08:53
486,gerash,27.6652,54.1371,30.57,28,59,0.68,IR,2023-06-04,18:11:22
487,mata-utu,-13.2816,-176.1745,27.08,79,52,8.91,WF,2023-06-04,18:04:26
488,grand falls-windsor,48.9332,-55.6649,4.11,96,100,2.85,CA,2023-06-04,18:07:38
489,leava,-14.3,-178.1667,27.62,73,91,9.56,WF,2023-06-04,18:11:23
490,marsa alam,25.0757,34.8918,31.38,50,21,5.74,EG,2023-06-04,18:04:02
491,waycross,31.2136,-82.354,28.14,63,40,6.17,US,2023-06-04,18:11:23
492,lhasa,29.65,91.1,13.52,29,16,2.45,CN,2023-06-04,18:11:23
493,chegdomyn,51.1167,133.0167,6.77,94,38,1.08,RU,2023-06-04,18:08:13
494,sungai penuh,-2.0833,101.3833,18.56,98,98,0.65,ID,2023-06-04,18:11:23
495,turgen,43.4006,77.5933,18.07,51,55,2.93,KZ,2023-06-04,18:08:53
496,katsuren-haebaru,26.3369,127.8719,24.21,78,75,0.0,JP,2023-06-04,18:03:31
497,atvidaberg,58.2015,15.9977,18.66,45,6,1.63,SE,2023-06-04,18:11:24
498,joao monlevade,-19.81,-43.1736,24.86,40,0,1.51,BR,2023-06-04,18:11:24
499,nuku'alofa,-21.1333,-175.2,19.19,88,20,2.57,TO,2023-06-04,18:03:09
500,mejit,10.2753,170.8646,26.21,85,100,8.2,MH,2023-06-04,18:03:54
501,itaituba,-4.2761,-55.9836,32.56,52,51,0.61,BR,2023-06-04,18:11:24
502,cobram,-35.9167,145.65,12.73,65,100,6.61,AU,2023-06-04,18:11:24
503,pamandzi,-12.7967,45.2794,26.88,74,40,4.12,YT,2023-06-04,18:11:24
504,farah,32.5,62.5,28.9,13,1,4.72,AF,2023-06-04,18:11:24
505,hirara,24.8,125.2833,23.92,83,20,3.6,JP,2023-06-04,18:03:24
506,gargalianoi,37.0667,21.6333,19.34,80,5,2.06,GR,2023-06-04,18:11:25
507,kulhudhuffushi,6.6221,73.07,28.1,80,100,9.05,MV,2023-06-04,18:11:25
508,codrington,-38.2667,141.9667,13.67,82,100,6.34,AU,2023-06-04,18:04:08
509,east ballina,-28.8667,153.5833,16.56,77,100,6.68,AU,2023-06-04,18:11:25
510,kavaratti,10.5669,72.642,29.1,74,94,5.09,IN,2023-06-04,18:03:46
511,yeppoon,-23.1333,150.7333,17.88,79,50,7.21,AU,2023-06-04,18:05:49
512,mandan,46.8267,-100.8896,31.32,51,0,4.63,US,2023-06-04,18:11:25
513,aykhal,66.0,111.5,0.94,98,100,7.62,RU,2023-06-04,18:08:08
514,outeiro de rei,43.102,-7.615,16.98,98,100,1.7,ES,2023-06-04,18:11:26
515,mount isa,-20.7333,139.5,14.87,77,40,0.0,AU,2023-06-04,18:03:17
516,sandnessjoen,66.0217,12.6316,8.29,93,75,5.66,NO,2023-06-04,18:11:26
517,ulverstone,-41.15,146.1667,11.23,87,88,4.24,AU,2023-06-04,18:11:26
518,badvel,14.75,79.05,32.49,42,75,2.25,IN,2023-06-04,18:11:26
519,lake hallie,44.8758,-91.4407,31.01,34,0,3.09,US,2023-06-04,18:11:26
520,whangarei,-35.7317,174.3239,8.34,96,32,2.18,NZ,2023-06-04,18:11:27
521,arawa,-6.2132,155.5367,24.83,93,63,1.27,PG,2023-06-04,18:11:27
522,caleta de carquin,-11.0925,-77.6267,23.6,68,29,5.52,PE,2023-06-04,18:11:27
523,znamenskoye,57.1281,73.8282,21.83,63,0,1.96,RU,2023-06-04,18:08:35
524,urzhar,47.093,81.6294,20.82,27,4,4.43,KZ,2023-06-04,18:11:27
525,rehoboth,-23.3167,17.0833,12.71,22,0,3.5,,2023-06-04,18:11:27
526,katsuura,35.1333,140.3,19.15,85,100,2.44,JP,2023-06-04,18:08:02
527,ridgecrest,35.6225,-117.6709,32.92,16,0,4.12,US,2023-06-04,18:11:27
528,yarmouth,41.7057,-70.2286,12.23,86,100,11.62,US,2023-06-04,18:11:28
529,macherla,16.4833,79.4333,34.21,37,76,1.51,IN,2023-06-04,18:11:28
530,kalevala,65.2,31.1667,10.5,57,96,4.23,RU,2023-06-04,18:11:28
531,pisco,-13.7,-76.2167,22.03,73,0,4.12,PE,2023-06-04,18:03:16
532,palu,-0.8917,119.8707,24.33,96,87,1.16,ID,2023-06-04,18:04:12
533,abadan,30.3392,48.3043,39.22,9,71,9.2,IR,2023-06-04,18:11:28
534,chonchi,-42.6128,-73.8092,10.62,75,86,2.98,CL,2023-06-04,18:03:27
535,tralee,52.2704,-9.7026,23.14,40,0,4.63,IE,2023-06-04,18:04:13
536,hargeysa,9.56,44.065,23.78,61,58,5.2,SO,2023-06-04,18:11:29
537,la'ie,21.6477,-157.9253,25.98,75,100,4.39,US,2023-06-04,18:07:58
538,shuangjiang,26.1547,109.7138,22.91,87,2,0.92,CN,2023-06-04,18:11:29
539,puerto deseado,-47.7503,-65.8938,8.09,51,5,7.81,AR,2023-06-04,18:07:41
540,balabac,7.9868,117.0645,27.56,81,100,3.09,PH,2023-06-04,18:11:29
541,posto fiscal rolim de moura,-13.0833,-62.2667,34.42,40,6,0.29,BR,2023-06-04,18:11:29
542,turan,16.0678,108.2208,26.99,83,20,2.06,VN,2023-06-04,18:07:12
543,gambiran satu,-8.3939,114.1464,23.18,95,98,0.38,ID,2023-06-04,18:11:29
544,port saint john's,-31.6229,29.5448,17.43,87,36,4.0,ZA,2023-06-04,18:03:13
545,kangaba,11.9333,-8.4167,37.98,26,73,1.47,ML,2023-06-04,18:11:30
546,kittila,67.6647,24.8936,12.01,50,75,3.6,FI,2023-06-04,18:11:30
547,zhuanghe,39.7008,122.9911,18.59,53,69,2.89,CN,2023-06-04,18:11:30
548,kanniyakumari,8.0833,77.5667,28.05,84,83,7.59,IN,2023-06-04,18:11:30
549,miandrivazo,-19.5167,45.4667,25.78,45,6,1.54,MG,2023-06-04,18:08:55
550,ikungi,-5.1333,34.7667,18.21,58,51,3.62,TZ,2023-06-04,18:11:30
551,road town,18.4167,-64.6167,31.02,74,40,5.66,VG,2023-06-04,18:11:31
552,denia,38.8408,0.1057,23.13,73,11,3.58,ES,2023-06-04,18:11:31
553,dobrich,43.5667,27.8333,17.05,66,99,3.07,BG,2023-06-04,18:11:31
554,bairnsdale,-37.8333,147.6167,7.41,91,79,1.53,AU,2023-06-04,18:11:31
