City_ID,City,Lat,Lng,Max Temp,Humidity,Cloudiness,Wind Speed,Country,Date
0,lapai,9.05,6.5667,36.35,40,96,1.17,NG,2023-06-04 15:08:31
1,mogadishu,2.0371,45.3438,27.93,89,75,5.66,SO,2023-06-04 15:03:38
2,yellowknife,62.456,-114.3525,17.29,67,40,4.12,CA,2023-06-04 15:04:14
3,naze,28.3667,129.4833,21.12,72,16,2.28,JP,2023-06-04 15:07:29
4,tiksi,71.6872,128.8694,1.27,96,100,2.25,RU,2023-06-04 15:08:31
5,waitangi,-43.9535,-176.5597,11.57,63,100,5.93,NZ,2023-06-04 15:08:31
6,tateyama,34.9833,139.8667,21.41,78,100,8.58,JP,2023-06-04 15:08:31
7,tres palos,18.1833,-101.6167,28.06,49,7,1.58,MX,2023-06-04 15:08:32
8,pasuquin,18.3328,120.6177,26.97,89,75,3.09,PH,2023-06-04 15:08:32
9,ushuaia,-54.8,-68.3,3.02,94,100,1.61,AR,2023-06-04 15:08:32
10,olonkinbyen,70.9221,-8.7187,-0.11,82,94,5.99,SJ,2023-06-04 15:08:32
11,zaozersk,69.4005,32.4476,7.32,51,9,5.76,RU,2023-06-04 15:08:32
12,badger,64.8,-147.5333,9.65,82,100,0.0,US,2023-06-04 15:08:32
13,kingston,17.997,-76.7936,29.0,66,5,2.2,JM,2023-06-04 15:07:41
14,port-aux-francais,-49.35,70.2167,7.86,90,99,15.57,TF,2023-06-04 15:08:33
15,papatowai,-46.5619,169.4708,6.44,81,85,2.35,NZ,2023-06-04 15:08:33
16,wailua homesteads,22.0669,-159.378,20.44,86,20,2.06,US,2023-06-04 15:08:33
17,ust-nera,64.5667,143.2,10.63,54,69,2.15,RU,2023-06-04 15:05:38
18,whitehorse,60.7161,-135.0538,6.68,81,40,1.03,CA,2023-06-04 15:06:23
19,puerto natales,-51.7236,-72.4875,2.25,80,75,2.06,CL,2023-06-04 15:05:36
20,carmi,38.0909,-88.1587,30.06,63,17,2.86,US,2023-06-04 15:03:40
21,tommot,58.9564,126.2925,11.68,93,96,2.6,RU,2023-06-04 15:08:34
22,jamestown,42.097,-79.2353,19.45,33,0,4.12,US,2023-06-04 15:08:34
23,avarua,-21.2078,-159.775,22.12,62,44,2.38,CK,2023-06-04 15:08:34
24,khandyga,62.6667,135.6,11.4,70,16,1.23,RU,2023-06-04 15:08:34
25,albany,42.6001,-73.9662,16.81,53,45,3.13,US,2023-06-04 15:08:34
26,tahe,52.3333,124.7333,11.19,58,25,1.36,CN,2023-06-04 15:08:34
27,urzhar,47.093,81.6294,22.17,32,4,4.11,KZ,2023-06-04 15:08:34
28,hawaiian paradise park,19.5933,-154.9731,20.02,95,100,3.09,US,2023-06-04 15:08:35
29,adamstown,-25.066,-130.1015,21.98,73,89,5.4,PN,2023-06-04 15:08:35
30,brisas de zicatela,15.8369,-97.0419,31.29,66,0,2.57,MX,2023-06-04 15:08:35
31,yarmouth,41.7057,-70.2286,12.08,80,100,10.73,US,2023-06-04 15:06:47
32,ilebo,-4.3167,20.5833,34.95,32,37,0.19,CD,2023-06-04 15:08:35
33,hamilton,39.1834,-84.5333,23.33,59,0,3.09,US,2023-06-04 15:04:53
34,tianpeng,30.9866,103.9393,18.45,87,100,1.02,CN,2023-06-04 15:08:36
35,tura,25.5198,90.2201,28.12,44,12,1.97,IN,2023-06-04 15:08:36
36,morinville,53.8001,-113.652,20.44,87,61,3.07,CA,2023-06-04 15:08:36
37,topchikha,52.8192,83.1185,22.85,66,37,3.89,RU,2023-06-04 15:08:36
38,talnakh,69.4865,88.3972,4.56,92,79,0.73,RU,2023-06-04 15:08:36
39,okha,53.5739,142.9478,1.35,98,98,4.49,RU,2023-06-04 15:08:36
40,keflavik,64.0049,-22.5624,9.24,100,100,8.75,IS,2023-06-04 15:08:37
41,sibu,2.3,111.8167,24.34,96,93,0.43,MY,2023-06-04 15:08:37
42,benguela,-12.5763,13.4055,24.24,77,27,2.45,AO,2023-06-04 15:08:37
43,el calafate,-50.3408,-72.2768,1.71,71,75,1.35,AR,2023-06-04 15:08:37
44,namibe,-15.1961,12.1522,22.29,61,2,6.27,AO,2023-06-04 15:08:37
45,fale old settlement,-9.3852,-171.2468,28.14,77,100,5.57,TK,2023-06-04 15:08:37
46,ancud,-41.8697,-73.8203,7.94,84,78,4.46,CL,2023-06-04 15:08:38
47,hithadhoo,-0.6,73.0833,28.28,74,100,3.02,MV,2023-06-04 15:08:38
48,ainaro,-8.9924,125.5082,17.88,94,100,1.16,TL,2023-06-04 15:08:38
49,stanley,54.868,-1.6985,14.85,73,40,2.57,GB,2023-06-04 15:05:06
50,al kharijah,25.4514,30.5464,40.48,12,0,8.24,EG,2023-06-04 15:08:38
51,tergnier,49.6561,3.3011,21.56,54,4,6.04,FR,2023-06-04 15:08:38
52,yar,58.249,52.1026,10.39,76,64,5.92,RU,2023-06-04 15:08:38
53,margaret river,-33.95,115.0667,14.85,70,100,7.87,AU,2023-06-04 15:08:39
54,gallup,35.5281,-108.7426,16.12,40,0,0.0,US,2023-06-04 15:08:39
55,invercargill,-46.4,168.35,6.45,76,83,1.08,NZ,2023-06-04 15:08:39
56,zulpich,50.7,6.65,25.49,30,5,2.57,DE,2023-06-04 15:08:39
57,edinburgh of the seven seas,-37.0676,-12.3116,13.96,86,100,16.75,SH,2023-06-04 15:08:39
58,west island,-12.1568,96.8225,26.99,78,100,7.2,CC,2023-06-04 15:08:39
59,flying fish cove,-10.4217,105.6791,24.82,88,100,4.12,CX,2023-06-04 15:08:39
60,iqaluit,63.7506,-68.5145,2.61,74,100,7.6,CA,2023-06-04 15:08:39
61,longyearbyen,78.2186,15.6401,2.91,70,40,3.09,SJ,2023-06-04 15:08:40
62,hermanus,-34.4187,19.2345,12.11,78,98,13.43,ZA,2023-06-04 15:08:40
63,labrador city,52.9463,-66.9114,18.26,21,26,2.78,CA,2023-06-04 15:08:40
64,anadyr,64.75,177.4833,3.28,86,0,2.0,RU,2023-06-04 15:08:40
65,vila franca do campo,37.7167,-25.4333,21.23,70,34,3.29,PT,2023-06-04 15:08:40
66,petropavlovsk-kamchatsky,53.0452,158.6483,2.1,100,100,4.31,RU,2023-06-04 15:08:41
67,qaqortoq,60.7167,-46.0333,2.93,86,100,2.87,GL,2023-06-04 15:08:41
68,acarau,-2.8856,-40.12,30.42,58,64,5.94,BR,2023-06-04 15:08:41
69,manado,1.487,124.8455,27.43,83,20,1.54,ID,2023-06-04 15:08:41
70,cromer,52.9312,1.2989,16.15,77,9,5.41,GB,2023-06-04 15:08:41
71,punta arenas,-53.15,-70.9167,4.06,75,0,3.6,CL,2023-06-04 15:08:42
72,bu'aale,1.0833,42.5833,30.2,50,97,4.33,SO,2023-06-04 15:08:43
73,callao,-12.0667,-77.15,23.73,73,100,5.14,PE,2023-06-04 15:08:43
74,st. john's,47.5649,-52.7093,7.53,97,100,7.2,CA,2023-06-04 15:06:32
75,thompson,55.7435,-97.8558,11.23,68,100,4.09,CA,2023-06-04 15:08:43
76,sisimiut,66.9395,-53.6735,0.34,68,46,3.6,GL,2023-06-04 15:08:43
77,ribeira grande,38.5167,-28.7,21.22,78,40,4.12,PT,2023-06-04 15:05:47
78,nemuro,43.3236,145.575,8.59,85,83,4.84,JP,2023-06-04 15:08:44
79,lihue,21.9789,-159.3672,20.77,86,20,2.06,US,2023-06-04 15:05:27
80,port alfred,-33.5906,26.891,16.21,72,17,0.89,ZA,2023-06-04 15:04:06
81,isafjordur,66.0755,-23.124,12.02,62,75,4.63,IS,2023-06-04 15:08:44
82,constantia,44.1833,28.65,20.38,58,31,6.38,RO,2023-06-04 15:08:44
83,ad dilam,23.9915,47.1627,39.75,10,7,4.98,SA,2023-06-04 15:08:44
84,noumea,-22.2763,166.4572,21.67,99,16,2.87,NC,2023-06-04 15:05:59
85,crane,31.3974,-102.3501,23.35,63,93,2.28,US,2023-06-04 15:08:45
86,tambacounda,13.7539,-13.7586,39.62,15,77,2.51,SN,2023-06-04 15:08:45
87,grytviken,-54.2811,-36.5092,-0.08,93,100,3.38,GS,2023-06-04 15:08:45
88,kapuskasing,49.4169,-82.4331,24.87,32,89,2.42,CA,2023-06-04 15:08:45
89,howrah,22.5892,88.3103,32.0,74,20,7.72,IN,2023-06-04 15:08:45
90,holualoa,19.6228,-155.9522,21.91,83,100,1.54,US,2023-06-04 15:08:45
91,kirensk,57.7853,108.1119,11.97,56,66,1.12,RU,2023-06-04 15:08:45
92,helena valley southeast,46.6153,-111.9216,16.78,82,100,0.0,US,2023-06-04 15:08:46
93,prince rupert,54.3161,-130.3201,8.05,94,75,6.69,CA,2023-06-04 15:05:09
94,tolanaro,-25.0319,46.9987,22.61,84,42,5.13,MG,2023-06-04 15:08:46
95,salahonda,2.1019,-78.7217,24.6,89,100,5.99,CO,2023-06-04 15:08:46
96,shuangjiang,26.1547,109.7138,23.48,86,0,1.05,CN,2023-06-04 15:08:46
97,uusikaupunki,60.8004,21.4084,10.19,63,16,5.7,FI,2023-06-04 15:08:46
98,pont rouge,48.8833,-72.0825,16.16,34,0,1.76,CA,2023-06-04 15:08:46
99,palikir - national government center,6.9248,158.1611,27.4,78,99,2.94,FM,2023-06-04 15:08:47
100,lata,40.1629,-8.3327,27.49,51,26,4.64,PT,2023-06-04 15:07:37
101,batticaloa,7.7102,81.6924,28.53,78,35,3.23,LK,2023-06-04 15:08:47
102,ilulissat,69.2167,-51.1,1.01,60,75,0.51,GL,2023-06-04 15:08:18
103,college,64.8569,-147.8028,9.7,80,100,0.45,US,2023-06-04 15:08:47
104,codrington,-38.2667,141.9667,12.88,86,100,5.19,AU,2023-06-04 15:08:47
105,colonia,50.9333,6.95,26.13,29,0,1.54,DE,2023-06-04 15:07:10
106,fortuna,40.5982,-124.1573,12.19,96,100,3.09,US,2023-06-04 15:08:47
107,abepura,-2.6333,140.5833,24.45,88,20,1.03,ID,2023-06-04 15:08:48
108,bethel,41.3712,-73.414,16.53,65,100,5.66,US,2023-06-04 15:04:39
109,new norfolk,-42.7826,147.0587,3.17,77,2,1.12,AU,2023-06-04 15:08:48
110,klyuchi,52.2667,79.1667,26.77,38,0,3.71,RU,2023-06-04 15:08:48
111,kununurra,-15.7667,128.7333,17.99,94,4,1.03,AU,2023-06-04 15:08:48
112,aripuana,-9.1667,-60.6333,32.34,47,5,1.51,BR,2023-06-04 15:08:48
113,aykhal,66.0,111.5,1.19,98,100,10.42,RU,2023-06-04 15:08:48
114,yelizovo,53.1873,158.3805,2.84,100,99,1.79,RU,2023-06-04 15:08:49
115,shuangyashan,46.6361,131.1539,11.64,76,65,3.39,CN,2023-06-04 15:08:49
116,hammerfest,70.6634,23.6821,8.25,71,75,2.57,NO,2023-06-04 15:08:49
117,san patricio,28.017,-97.5169,28.97,69,100,0.47,US,2023-06-04 15:08:49
118,utrik,11.2278,169.8474,27.29,80,100,6.63,MH,2023-06-04 15:08:49
119,dilling,12.05,29.65,35.56,28,57,2.7,SD,2023-06-04 15:08:49
120,port lincoln,-34.7333,135.8667,16.49,86,100,4.59,AU,2023-06-04 15:08:49
121,puerto ayora,-0.7393,-90.3518,29.98,91,49,5.36,EC,2023-06-04 15:08:49
122,masterton,-40.9597,175.6575,10.49,98,100,1.98,NZ,2023-06-04 15:04:06
123,blackmans bay,-43.0167,147.3167,2.51,89,2,3.41,AU,2023-06-04 15:08:50
124,port elizabeth,-33.918,25.5701,15.61,65,5,1.67,ZA,2023-06-04 15:08:50
125,lompoc,34.6391,-120.4579,13.29,66,100,0.89,US,2023-06-04 15:08:50
126,hluti,-27.2167,31.6167,19.74,59,100,1.95,SZ,2023-06-04 15:08:50
127,nuuk,64.1835,-51.7216,2.34,93,100,8.75,GL,2023-06-04 15:08:50
128,lubang,13.8584,120.124,28.38,78,100,3.85,PH,2023-06-04 15:08:50
129,birobidzhan,48.8,132.95,10.18,97,91,0.46,RU,2023-06-04 15:08:50
130,dudinka,69.4058,86.1778,4.79,74,7,6.75,RU,2023-06-04 15:08:51
131,aral,40.5156,81.2636,26.88,11,100,3.24,CN,2023-06-04 15:08:51
132,alice springs,-23.7,133.8833,9.75,100,100,3.6,AU,2023-06-04 15:07:47
133,gao,16.6362,1.637,42.27,8,100,3.04,ML,2023-06-04 15:08:06
134,bamboo flat,11.7,92.7167,28.39,75,99,5.73,IN,2023-06-04 15:08:51
135,thunder bay,48.4001,-89.3168,21.95,64,20,2.06,CA,2023-06-04 15:04:19
136,bilibino,68.0546,166.4372,8.45,68,100,2.53,RU,2023-06-04 15:08:51
137,santa ines,-3.6667,-45.38,30.06,62,52,3.2,BR,2023-06-04 15:07:51
138,itamaraca,-7.7478,-34.8256,29.03,71,88,6.1,BR,2023-06-04 15:04:33
139,lebu,-37.6167,-73.65,10.49,72,69,1.54,CL,2023-06-04 15:08:52
140,qianzhou,28.3167,109.7167,22.64,93,80,2.8,CN,2023-06-04 15:08:52
141,mikhaylovka,50.06,43.2379,20.44,53,0,5.37,RU,2023-06-04 15:08:52
142,murashi,59.3999,48.9615,13.14,48,13,4.23,RU,2023-06-04 15:08:52
143,sirre,8.3167,39.4833,21.01,66,94,2.63,ET,2023-06-04 15:08:52
144,chonchi,-42.6128,-73.8092,7.29,86,68,2.21,CL,2023-06-04 15:08:52
145,teguise,29.0605,-13.564,21.12,73,75,2.57,ES,2023-06-04 15:08:53
146,banda aceh,5.5577,95.3222,27.4,82,98,6.1,ID,2023-06-04 15:04:43
147,mount isa,-20.7333,139.5,14.87,72,66,0.0,AU,2023-06-04 15:08:53
148,georgetown,5.4112,100.3354,29.97,77,20,2.24,MY,2023-06-04 15:06:07
149,pisco,-13.7,-76.2167,22.03,68,20,2.06,PE,2023-06-04 15:08:53
150,touros,-5.1989,-35.4608,30.06,59,89,7.49,BR,2023-06-04 15:08:53
151,mawlaik,23.6333,94.4167,32.28,51,94,1.31,MM,2023-06-04 15:08:53
152,curillo,1.0333,-75.9191,26.41,82,95,1.05,CO,2023-06-04 15:08:54
153,timbiqui,2.7717,-77.6654,27.48,82,100,1.74,CO,2023-06-04 15:08:54
154,livingston,55.9029,-3.5226,21.44,71,0,5.66,GB,2023-06-04 15:04:05
155,udachny,66.4167,112.4,1.36,100,100,8.95,RU,2023-06-04 15:08:54
156,tazovsky,67.4667,78.7,12.8,61,100,6.24,RU,2023-06-04 15:08:54
157,revda,56.801,59.9303,16.54,92,100,3.2,RU,2023-06-04 15:08:54
158,midvagur,62.0511,-7.1939,11.46,71,75,6.69,FO,2023-06-04 15:08:54
159,cidreira,-30.1811,-50.2056,23.68,55,3,2.53,BR,2023-06-04 15:08:55
160,ola,59.5833,151.2833,8.97,66,35,2.16,RU,2023-06-04 15:08:55
161,uvalde,29.3669,-99.767,25.73,86,0,0.0,US,2023-06-04 15:08:55
162,sao desiderio,-12.3633,-44.9733,31.43,32,0,2.62,BR,2023-06-04 15:08:55
163,santyoku,37.4406,129.1708,19.1,54,100,3.97,KR,2023-06-04 15:08:55
164,uturoa,-16.7333,-151.4333,25.87,74,54,4.76,PF,2023-06-04 15:08:55
165,port mathurin,-19.6833,63.4167,24.97,79,13,12.33,MU,2023-06-04 15:08:55
166,dompu,-8.5356,118.4622,22.63,93,99,0.56,ID,2023-06-04 15:08:55
167,sitka,57.0531,-135.33,9.94,81,75,0.0,US,2023-06-04 15:08:56
168,vrangel',42.7297,133.0839,11.7,80,28,2.45,RU,2023-06-04 15:08:56
169,vilyuchinsk,52.9306,158.4028,2.92,91,100,3.17,RU,2023-06-04 15:08:56
170,gadzhiyevo,69.2551,33.3362,5.68,59,57,4.67,RU,2023-06-04 15:08:56
171,saudarkrokur,65.7461,-19.6394,12.82,61,97,4.2,IS,2023-06-04 15:07:46
172,kanggye,40.9695,126.5852,12.26,79,34,2.02,KP,2023-06-04 15:08:56
173,floro,61.5996,5.0328,20.04,76,100,10.8,NO,2023-06-04 15:08:57
174,laiyang,36.9758,120.7136,21.69,34,100,6.21,CN,2023-06-04 15:08:57
175,kodiak,57.79,-152.4072,6.73,93,100,5.66,US,2023-06-04 15:08:57
176,marka,1.7159,44.7717,26.91,80,99,6.12,SO,2023-06-04 15:08:57
177,orkney,-26.9802,26.6727,21.44,15,84,5.18,ZA,2023-06-04 15:08:57
178,yermentau,51.6214,73.1069,24.41,33,1,2.77,KZ,2023-06-04 15:08:57
179,san andres,12.5847,-81.7006,28.8,79,48,2.76,CO,2023-06-04 15:08:57
180,port augusta,-32.5,137.7667,16.36,76,100,0.35,AU,2023-06-04 15:07:46
181,fort st. john,56.2499,-120.8529,12.6,97,87,1.24,CA,2023-06-04 15:08:58
182,sarkisla,39.3519,36.4098,19.99,51,90,3.14,TR,2023-06-04 15:08:58
183,kupang,-10.1667,123.5833,24.67,77,68,4.4,ID,2023-06-04 15:08:58
184,bredasdorp,-34.5322,20.0403,11.47,89,71,9.5,ZA,2023-06-04 15:08:58
185,cabo san lucas,22.8909,-109.9124,28.36,61,40,1.54,MX,2023-06-04 15:05:40
186,namtsy,62.7161,129.6658,14.93,66,89,4.19,RU,2023-06-04 15:08:59
187,dumas,35.8656,-101.9732,19.78,72,0,2.06,US,2023-06-04 15:08:59
188,turbat,26.0023,63.044,36.87,27,0,7.26,PK,2023-06-04 15:08:59
189,puerto princesa,9.7392,118.7353,26.99,89,75,2.06,PH,2023-06-04 15:08:59
190,nalut,30.3333,10.85,39.62,8,57,7.15,LY,2023-06-04 15:08:59
191,lodwar,3.1191,35.5973,34.53,23,70,5.16,KE,2023-06-04 15:08:59
192,taitung city,22.7583,121.1444,26.78,86,67,0.23,TW,2023-06-04 15:09:00
193,prineville,44.2999,-120.8345,17.5,52,0,2.06,US,2023-06-04 15:05:29
194,champerico,14.3,-91.9167,29.73,70,79,0.87,GT,2023-06-04 15:09:00
195,faya-largeau,17.9257,19.1043,41.69,16,51,2.3,TD,2023-06-04 15:09:00
196,ostersund,63.1792,14.6357,11.25,35,20,5.66,SE,2023-06-04 15:09:00
197,carrigaline,51.8117,-8.3986,19.86,42,20,7.2,IE,2023-06-04 15:09:00
198,kendari,-3.945,122.4989,24.3,93,33,1.19,ID,2023-06-04 15:09:00
199,vilyuysk,63.7553,121.6247,8.74,76,48,3.09,RU,2023-06-04 15:09:01
200,mossel bay,-34.1831,22.146,17.0,53,28,8.64,ZA,2023-06-04 15:09:01
201,mount gambier,-37.8333,140.7667,15.42,74,100,4.41,AU,2023-06-04 15:09:01
202,salalah,17.0151,54.0924,31.05,74,20,4.63,OM,2023-06-04 15:09:01
203,north bay,46.3168,-79.4663,19.86,35,1,1.04,CA,2023-06-04 15:09:01
204,nadi,-17.8,177.4167,22.0,83,20,2.57,FJ,2023-06-04 15:09:02
205,nambucca,-30.6333,152.9833,18.81,78,100,3.6,AU,2023-06-04 15:09:02
206,portland,45.5234,-122.6762,14.14,70,20,6.17,US,2023-06-04 15:03:43
207,amfissa,38.525,22.3731,25.27,55,96,1.17,GR,2023-06-04 15:09:02
208,mutare,-18.9707,32.6709,22.83,33,5,2.43,ZW,2023-06-04 15:09:02
209,chibougamau,49.9168,-74.3659,18.79,26,40,3.09,CA,2023-06-04 15:09:02
210,sidi akkacha,36.4647,1.3026,22.44,66,11,4.49,DZ,2023-06-04 15:09:03
211,kas,36.2018,29.6377,23.69,67,63,3.45,TR,2023-06-04 15:09:03
212,thinadhoo,0.5333,72.9333,28.65,72,100,3.24,MV,2023-06-04 15:09:03
213,mukalla,14.5425,49.1242,30.35,75,16,2.22,YE,2023-06-04 15:09:03
214,leh,34.1667,77.5833,10.57,32,69,2.65,IN,2023-06-04 15:09:03
215,sinton,28.0367,-97.5092,28.98,69,100,0.48,US,2023-06-04 15:09:04
216,moura,38.1401,-7.4486,28.0,32,98,0.28,PT,2023-06-04 15:09:04
217,kavaratti,10.5669,72.642,28.92,74,91,2.1,IN,2023-06-04 15:09:04
218,korsakov,46.6328,142.7813,5.47,95,100,4.5,RU,2023-06-04 15:09:04
219,vorgashor,67.5833,63.95,19.73,49,98,3.81,RU,2023-06-04 15:09:04
220,haiku-pauwela,20.9219,-156.3051,23.36,82,0,1.54,US,2023-06-04 15:06:32
221,midoun,33.8081,10.9923,23.92,80,100,12.85,TN,2023-06-04 15:09:06
222,tinajo,29.0788,-13.7081,22.49,73,75,2.57,ES,2023-06-04 15:09:06
223,geraldton,-28.7667,114.6,18.23,68,75,5.66,AU,2023-06-04 15:09:06
224,reitz,-27.8014,28.4273,13.86,36,100,3.37,ZA,2023-06-04 15:09:06
225,tongliao,43.6125,122.2653,21.13,20,59,4.55,CN,2023-06-04 15:09:07
226,enewetak,11.3474,162.3373,27.77,76,100,4.87,MH,2023-06-04 15:09:07
227,richards bay,-28.783,32.0377,20.64,73,100,2.85,ZA,2023-06-04 15:09:03
228,aweil,8.7682,27.4002,36.1,28,100,2.29,SS,2023-06-04 15:09:07
229,mao,39.8885,4.2658,22.31,73,40,4.63,ES,2023-06-04 15:09:07
230,bikenibeu village,1.3673,173.1241,27.98,83,40,2.06,KI,2023-06-04 15:09:07
231,pingliang,35.5392,106.6861,12.86,62,73,1.85,CN,2023-06-04 15:09:08
232,minas de marcona,-15.2119,-75.1103,16.38,68,43,5.89,PE,2023-06-04 15:09:08
233,ghat,24.9647,10.1728,40.73,5,0,2.98,LY,2023-06-04 15:09:08
234,usinsk,65.9939,57.5281,23.14,43,69,5.9,RU,2023-06-04 15:09:08
235,talcahuano,-36.7167,-73.1167,10.82,71,0,1.54,CL,2023-06-04 15:09:08
236,las khorey,11.1595,48.1967,32.2,60,10,2.73,SO,2023-06-04 15:09:09
237,saint-louis,16.3333,-15.0,39.4,13,67,2.58,SN,2023-06-04 15:09:09
238,benito juarez,19.385,-99.165,23.89,34,0,2.06,MX,2023-06-04 15:09:09
239,chekhov,55.1431,37.4711,13.97,51,96,3.83,RU,2023-06-04 15:07:22
240,aasiaat,68.7098,-52.8699,-0.94,85,100,2.2,GL,2023-06-04 15:09:09
241,muynoq,43.7683,59.0214,28.55,21,3,2.93,UZ,2023-06-04 15:09:09
242,werota,11.9167,37.7,23.3,54,98,0.86,ET,2023-06-04 15:09:09
243,taksimo,56.3444,114.8794,10.38,78,58,2.45,RU,2023-06-04 15:09:10
244,severo-yeniseyskiy,60.3725,93.0408,16.42,52,100,2.33,RU,2023-06-04 15:09:10
245,tagiura,32.8817,13.3506,28.67,43,100,10.38,LY,2023-06-04 15:09:10
246,agar,23.7,76.0167,28.9,38,90,2.42,IN,2023-06-04 15:05:37
247,saratoga springs,43.0831,-73.7846,17.55,49,72,2.24,US,2023-06-04 15:08:00
248,fort bragg,35.139,-79.006,18.23,80,100,7.72,US,2023-06-04 15:06:41
249,drogheda,53.7189,-6.3478,19.65,67,1,3.69,IE,2023-06-04 15:04:34
250,rio grande,-32.035,-52.0986,29.06,80,100,3.88,BR,2023-06-04 15:09:11
251,kassala,15.451,36.4,38.78,20,77,1.72,SD,2023-06-04 15:09:11
252,dahab,28.501,34.5134,35.49,28,83,7.95,EG,2023-06-04 15:09:11
253,la'ie,21.6477,-157.9253,23.39,77,100,4.22,US,2023-06-04 15:09:12
254,stornoway,58.2093,-6.3865,13.38,80,75,4.63,GB,2023-06-04 15:09:12
255,the pas,53.8251,-101.2541,20.47,82,100,4.75,CA,2023-06-04 15:09:12
256,ayr,55.4627,-4.6339,23.32,52,20,4.63,GB,2023-06-04 15:09:12
257,torit,4.4133,32.5678,31.96,40,71,2.22,SS,2023-06-04 15:09:12
258,iskateley,67.6803,53.1512,20.34,56,79,3.89,RU,2023-06-04 15:09:13
259,san antonio de pale,-1.4014,5.6325,26.22,84,90,4.85,GQ,2023-06-04 15:09:13
260,karwar,14.8,74.1333,28.58,81,82,2.97,IN,2023-06-04 15:09:13
261,pangody,65.85,74.4859,13.54,92,100,9.25,RU,2023-06-04 15:09:13
262,el porvenir,13.7617,-87.3458,28.63,71,98,1.31,HN,2023-06-04 15:09:13
263,east london,-33.0153,27.9116,17.57,59,65,2.86,ZA,2023-06-04 15:09:13
264,egilsstadir,65.2653,-14.3948,15.44,54,100,4.11,IS,2023-06-04 15:09:13
265,sydney mines,46.2367,-60.2177,8.41,96,100,2.24,CA,2023-06-04 15:09:14
266,gerash,27.6652,54.1371,32.12,24,94,2.75,IR,2023-06-04 15:09:14
267,iquique,-20.2208,-70.1431,19.02,63,0,1.87,CL,2023-06-04 15:08:28
268,tubarjal,30.4999,38.216,34.46,17,97,2.82,SA,2023-06-04 15:09:14
269,kavieng,-2.5744,150.7967,27.52,79,14,3.53,PG,2023-06-04 15:09:14
270,atafu village,-8.5421,-172.5159,28.45,74,64,4.44,TK,2023-06-04 15:09:15
271,elverum,60.8819,11.5623,20.95,30,73,0.46,NO,2023-06-04 15:09:15
272,beaver dam,43.4578,-88.8373,23.45,55,0,2.57,US,2023-06-04 15:09:15
273,dimitrovgrad,54.2139,49.6184,15.56,59,19,5.03,RU,2023-06-04 15:09:15
274,forster,-32.1667,152.5167,16.88,84,100,3.56,AU,2023-06-04 15:09:15
275,papao,-17.75,-149.55,21.82,77,92,5.64,PF,2023-06-04 15:09:16
276,trenggalek,-8.05,111.7167,23.78,96,89,1.28,ID,2023-06-04 15:09:16
277,kuje,8.8796,7.2272,34.93,41,60,1.44,NG,2023-06-04 15:09:16
278,puerto el triunfo,13.2833,-88.55,29.76,72,100,0.37,SV,2023-06-04 15:09:16
279,klaksvik,62.2266,-6.589,11.51,80,11,9.28,FO,2023-06-04 15:09:16
280,kulhudhuffushi,6.6221,73.07,26.73,87,100,9.41,MV,2023-06-04 15:09:16
281,les anglais,18.3054,-74.2197,29.58,73,33,3.37,HT,2023-06-04 15:09:16
282,lae,-6.7221,146.9847,24.3,89,100,1.17,PG,2023-06-04 15:09:17
283,sunne,59.8376,13.143,21.23,24,21,2.65,SE,2023-06-04 15:09:17
284,ujae,8.9322,165.7642,27.87,76,94,4.48,MH,2023-06-04 15:09:17
285,middlebury (village),44.0153,-73.1673,13.05,59,100,6.69,US,2023-06-04 15:07:23
286,argo,37.6333,22.7333,25.99,46,55,1.17,GR,2023-06-04 15:09:17
287,stephenville,32.2207,-98.2023,23.81,86,40,3.09,US,2023-06-04 15:06:07
288,polva,58.0603,27.0694,13.34,52,90,3.94,EE,2023-06-04 15:09:18
289,westport,41.1415,-73.3579,17.27,64,100,3.09,US,2023-06-04 15:05:21
290,puerto aysen,-45.4,-72.7,5.55,97,90,0.87,CL,2023-06-04 15:09:18
291,dolbeau-mistassini,48.8763,-72.212,15.25,38,0,2.32,CA,2023-06-04 15:07:36
292,uray,60.1247,64.7758,24.26,53,71,4.08,RU,2023-06-04 15:09:18
293,arraial do cabo,-22.9661,-42.0278,24.92,69,0,7.2,BR,2023-06-04 15:09:18
294,peace river,56.2501,-117.286,22.03,72,0,4.42,CA,2023-06-04 15:08:51
295,san matias,-16.3667,-58.4,30.52,49,0,1.68,BO,2023-06-04 15:09:19
296,laojunmiao,39.8333,97.7333,11.38,63,30,2.57,CN,2023-06-04 15:09:19
297,forres,57.6113,-3.6108,16.66,84,100,5.14,GB,2023-06-04 15:09:19
298,oropesa del mar,40.1,0.15,24.1,60,7,3.86,ES,2023-06-04 15:09:19
299,micheweni,-4.9667,39.8333,25.78,83,15,4.46,TZ,2023-06-04 15:09:19
300,askoy,60.4092,5.226,20.53,67,0,6.17,NO,2023-06-04 15:09:20
301,carnarvon,-24.8667,113.6333,19.3,58,0,5.16,AU,2023-06-04 15:09:20
302,guaruja,-23.9931,-46.2564,27.69,61,0,1.34,BR,2023-06-04 15:09:20
303,dwarka,22.2394,68.9678,28.97,84,0,6.99,IN,2023-06-04 15:09:20
304,kirkwood,38.5834,-90.4068,28.13,62,75,0.89,US,2023-06-04 15:09:20
305,la passe,45.5549,-0.8967,29.13,53,19,3.36,FR,2023-06-04 15:09:20
306,kudahuvadhoo,2.6708,72.8944,27.93,77,100,5.7,MV,2023-06-04 15:09:21
307,doctor arroyo,23.6667,-100.1833,20.88,74,49,4.48,MX,2023-06-04 15:06:51
308,cabedelo,-6.9811,-34.8339,29.37,74,86,7.06,BR,2023-06-04 15:09:21
309,polyarnyy,69.1989,33.4478,5.84,59,76,4.92,RU,2023-06-04 15:09:21
310,settat,33.0007,-7.6204,23.9,37,72,7.11,MA,2023-06-04 15:09:21
311,ekibastuz,51.6667,75.3667,27.93,24,0,3.59,KZ,2023-06-04 15:09:22
312,kerema,-7.9631,145.7785,25.3,89,76,1.73,PG,2023-06-04 15:09:22
313,velizh,55.6056,31.1967,14.0,54,100,3.73,RU,2023-06-04 15:09:22
314,dunedin,-45.8742,170.5036,4.92,85,60,3.55,NZ,2023-06-04 15:09:22
315,nagqu,31.5,92.0,7.02,17,100,1.17,CN,2023-06-04 15:09:22
316,olinda,-8.0089,-34.8553,28.85,74,40,6.17,BR,2023-06-04 15:09:22
317,felege neway,6.3,36.8833,21.52,83,100,1.33,ET,2023-06-04 15:09:23
318,santa cruz,-17.8,-63.1667,27.6,55,0,6.01,BO,2023-06-04 15:09:23
319,timimoun,29.2639,0.231,38.46,8,100,4.09,DZ,2023-06-04 15:09:23
320,petrove,48.3247,33.2562,17.86,42,0,4.9,UA,2023-06-04 15:09:23
321,coahuayana de hidalgo,18.7,-103.6583,27.64,68,64,0.91,MX,2023-06-04 15:09:23
322,mili,6.0815,171.735,27.94,79,98,4.76,MH,2023-06-04 15:09:23
323,sur,22.5667,59.5289,35.32,42,0,7.34,OM,2023-06-04 15:06:52
324,tamanrasset,22.785,5.5228,34.95,9,0,8.75,DZ,2023-06-04 15:09:24
325,ryotsu-minato,38.0833,138.4333,17.29,91,1,4.41,JP,2023-06-04 15:09:24
326,kewanee,41.2456,-89.9248,25.33,66,90,4.94,US,2023-06-04 15:08:45
327,douglas,41.3,-96.167,27.93,54,0,2.06,US,2023-06-04 15:09:24
328,mabaruma,8.2,-59.7833,30.61,65,93,2.0,GY,2023-06-04 15:09:24
329,weno,7.4515,151.8468,28.22,81,61,3.44,FM,2023-06-04 15:09:24
330,moussoro,13.6408,16.4901,40.09,22,72,2.83,TD,2023-06-04 15:09:25
331,rouissat,31.9243,5.3502,35.61,19,22,6.82,DZ,2023-06-04 15:09:25
332,tralee,52.2704,-9.7026,24.14,41,0,4.12,IE,2023-06-04 15:09:25
333,roudnice nad labem,50.4253,14.2618,22.89,37,4,2.09,CZ,2023-06-04 15:09:25
334,barcelos,41.5388,-8.6151,25.51,63,20,4.49,PT,2023-06-04 15:09:25
335,allapalli,19.4167,80.0667,36.84,25,90,2.34,IN,2023-06-04 15:09:26
336,vadso,70.0744,29.7487,10.49,61,75,4.12,NO,2023-06-04 15:09:26
337,yesilhisar,38.3497,35.0867,20.06,53,95,1.99,TR,2023-06-04 15:09:26
338,laurel,39.0993,-76.8483,20.06,66,100,3.6,US,2023-06-04 15:09:26
339,paros,37.0833,25.15,23.4,59,0,6.17,GR,2023-06-04 15:09:26
340,umm kaddadah,13.6017,26.6876,34.07,33,68,2.35,SD,2023-06-04 15:09:26
341,rio san juan,19.6439,-70.0763,31.76,61,80,1.57,DO,2023-06-04 15:09:27
342,illizi,26.4833,8.4667,40.64,6,0,5.5,DZ,2023-06-04 15:09:27
343,margate,51.3813,1.3862,15.94,73,2,5.36,GB,2023-06-04 15:09:27
344,happy valley-goose bay,53.3168,-60.3315,18.69,24,4,0.87,CA,2023-06-04 15:09:27
345,cole harbour,44.6724,-63.4751,10.55,87,100,3.58,CA,2023-06-04 15:09:27
346,kaspiyskiy,45.3929,47.3707,25.5,59,82,4.68,RU,2023-06-04 15:09:28
347,orda,57.1951,56.9091,17.81,82,79,2.26,RU,2023-06-04 15:09:28
348,swan hill,-35.3378,143.5544,16.57,64,100,6.93,AU,2023-06-04 15:09:28
349,newman,37.3138,-121.0208,23.19,39,50,1.34,US,2023-06-04 15:06:06
350,inhambane,-23.865,35.3833,25.29,82,0,7.34,MZ,2023-06-04 15:09:29
351,walvis bay,-22.9575,14.5053,13.94,64,0,8.82,,2023-06-04 15:09:29
352,road town,18.4167,-64.6167,31.05,79,40,6.17,VG,2023-06-04 15:09:29
353,kruisfontein,-34.0033,24.7314,14.38,63,12,1.64,ZA,2023-06-04 15:09:29
354,dzhalagash,45.0833,64.6667,31.77,11,0,3.32,KZ,2023-06-04 15:09:29
355,filadelfia,39.9523,-75.1638,21.12,51,40,5.66,US,2023-06-04 15:05:20
356,antofagasta,-23.65,-70.4,17.6,64,36,1.33,CL,2023-06-04 15:07:46
357,hpa-an,16.8906,97.6333,26.03,91,100,1.06,MM,2023-06-04 15:09:30
358,cockburn town,21.4612,-71.1419,27.87,77,28,1.22,TC,2023-06-04 15:09:30
359,juneau,58.3019,-134.4197,9.56,95,100,1.54,US,2023-06-04 15:09:30
360,hami,42.8,93.45,27.07,15,98,2.95,CN,2023-06-04 15:09:30
361,sos'va,59.1766,61.8558,17.4,95,100,4.23,RU,2023-06-04 15:09:30
362,santiago,-33.4569,-70.6483,18.49,73,75,1.54,CL,2023-06-04 14:57:01
363,lubango,-14.9172,13.4925,22.9,35,54,3.96,AO,2023-06-04 15:04:48
364,notodden,59.5594,9.2585,24.98,33,0,4.63,NO,2023-06-04 15:09:31
365,la ronge,55.1001,-105.2842,19.14,82,100,4.63,CA,2023-06-04 15:05:14
366,richfield,44.8833,-93.283,27.76,58,20,3.6,US,2023-06-04 15:09:31
367,blenheim,-41.516,173.9528,12.32,94,100,7.93,NZ,2023-06-04 15:09:32
368,cedeira,43.6797,-8.0209,22.77,82,94,6.1,ES,2023-06-04 15:09:32
369,kapa'a,22.0752,-159.319,21.18,86,20,2.06,US,2023-06-04 15:09:32
370,pacific grove,36.6177,-121.9166,11.9,95,100,1.54,US,2023-06-04 15:09:32
371,burabay,53.0838,70.3138,25.97,34,0,3.33,KZ,2023-06-04 15:09:32
372,san luis de la loma,17.2706,-100.8939,29.21,61,16,1.49,MX,2023-06-04 15:09:32
373,camrose,53.0168,-112.8353,17.73,96,89,3.12,CA,2023-06-04 15:09:33
374,benjamin aceval,-24.9667,-57.5667,27.08,55,75,2.27,PY,2023-06-04 15:09:33
375,wenling,28.3669,121.36,23.1,91,100,2.13,CN,2023-06-04 15:09:33
376,uliastay,47.7417,96.8444,12.2,54,72,2.91,MN,2023-06-04 15:09:33
377,grand-lahou,5.1367,-5.0242,27.86,78,98,4.11,CI,2023-06-04 15:09:33
378,winchester,51.0651,-1.3187,23.74,38,20,6.17,GB,2023-06-04 15:09:33
379,vernon,50.2581,-119.2691,21.07,37,0,4.02,CA,2023-06-04 15:09:17
380,isna,25.2934,32.554,42.01,11,59,6.1,EG,2023-06-04 15:06:40
381,san clemente del tuyu,-36.3569,-56.7235,14.43,62,99,6.51,AR,2023-06-04 15:09:34
382,ialibu,-6.2821,143.9935,14.47,98,100,0.36,PG,2023-06-04 15:09:34
383,summerside,46.3959,-63.7876,11.93,88,96,7.29,CA,2023-06-04 15:09:34
384,remire-montjoly,4.9167,-52.2667,27.02,89,75,1.54,GF,2023-06-04 15:05:17
385,ndioum,16.5129,-14.6471,39.62,12,39,2.62,SN,2023-06-04 15:09:34
386,popondetta,-8.7537,148.2534,22.54,97,99,1.34,PG,2023-06-04 15:09:35
387,myitkyina,25.3833,97.4,27.79,64,12,0.4,MM,2023-06-04 15:08:13
388,potosi,-19.5836,-65.7531,11.05,11,0,0.6,BO,2023-06-04 15:09:35
389,najran,17.4924,44.1277,34.36,16,3,3.7,SA,2023-06-04 15:06:29
390,forest grove,45.5198,-123.1107,13.91,64,0,4.02,US,2023-06-04 15:06:44
391,chenzhou,25.8,113.0333,25.62,93,100,1.75,CN,2023-06-04 15:09:35
392,susuman,62.7833,148.1667,10.37,66,100,1.62,RU,2023-06-04 15:09:35
393,al jumum,21.6169,39.6981,37.12,29,16,5.52,SA,2023-06-04 15:09:16
394,miri,4.4148,114.0089,26.92,83,100,0.93,MY,2023-06-04 15:09:36
395,chavusy,53.8075,30.9712,14.58,53,99,3.25,BY,2023-06-04 15:09:36
396,vayalar,9.7,76.3333,28.0,80,89,2.8,IN,2023-06-04 15:09:36
397,tidjikja,18.5564,-11.4271,37.6,13,4,2.07,MR,2023-06-04 15:09:36
398,mount pearl,47.5166,-52.7813,7.07,97,100,3.77,CA,2023-06-04 15:09:36
399,el haouaria,37.05,11.0144,22.4,69,98,5.45,TN,2023-06-04 15:09:36
400,mysore,12.3072,76.6497,22.8,89,100,3.94,IN,2023-06-04 15:09:37
401,sao jose da coroa grande,-8.8978,-35.1478,28.11,71,26,5.93,BR,2023-06-04 15:08:16
402,hilo,19.7297,-155.09,21.27,90,100,3.09,US,2023-06-04 15:09:37
403,howard springs,-12.497,131.047,23.95,77,99,1.21,AU,2023-06-04 15:09:37
404,prado,-17.3411,-39.2208,26.25,53,6,3.14,BR,2023-06-04 15:09:37
405,benin city,6.335,5.6275,30.81,62,94,2.4,NG,2023-06-04 15:09:37
406,hasaki,35.7333,140.8333,19.56,77,100,2.97,JP,2023-06-04 15:09:37
407,dorado,18.4588,-66.2677,33.52,59,40,5.14,PR,2023-06-04 15:09:38
408,moose jaw,50.4001,-105.5344,23.88,65,3,2.79,CA,2023-06-04 15:07:52
409,la tuque,47.4334,-72.7824,17.88,27,0,3.72,CA,2023-06-04 15:09:38
410,kasempa,-13.4584,25.8338,26.36,26,10,1.53,ZM,2023-06-04 15:09:38
411,saldanha,-33.0117,17.9442,14.84,79,69,10.94,ZA,2023-06-04 15:09:38
412,mandalgovi,45.7625,106.2708,14.59,48,1,4.33,MN,2023-06-04 15:09:38
413,akureyri,65.6835,-18.0878,14.96,53,92,2.71,IS,2023-06-04 15:09:38
414,kovdor,67.5662,30.4758,12.03,35,100,4.68,RU,2023-06-04 15:09:39
415,villa gonzalez ortega,22.5,-101.9167,22.79,16,0,3.66,MX,2023-06-04 15:09:39
416,visakhapatnam,17.69,83.2093,29.01,59,100,4.72,IN,2023-06-04 15:09:39
417,nuku'alofa,-21.1333,-175.2,19.19,94,20,3.09,TO,2023-06-04 15:09:39
418,dakhla,23.6848,-15.958,22.19,78,0,5.56,EH,2023-06-04 15:07:57
419,vizinga,61.0749,50.1031,11.17,71,79,2.48,RU,2023-06-04 15:09:39
420,singkil,-7.9855,111.4161,23.7,95,65,1.98,ID,2023-06-04 15:09:39
421,ulanhot,46.0833,122.0833,17.19,51,69,2.99,CN,2023-06-04 15:09:39
422,jayapura,-2.5333,140.7,24.66,91,47,2.17,ID,2023-06-04 15:09:40
423,greenville,35.6127,-77.3663,17.09,81,100,4.63,US,2023-06-04 15:09:40
424,verkhnevilyuysk,63.4453,120.3167,8.59,65,90,3.54,RU,2023-06-04 15:09:40
425,padang,-0.9492,100.3543,26.03,88,97,1.07,ID,2023-06-04 15:09:40
426,eureka,40.8021,-124.1637,12.34,94,33,0.89,US,2023-06-04 15:09:40
427,bandon,51.7469,-8.7425,19.77,61,8,5.31,IE,2023-06-04 15:09:40
428,isokyro,63.0117,22.3333,13.91,57,37,3.3,FI,2023-06-04 15:09:41
429,bayramaly,37.6185,62.1671,33.35,10,0,4.04,TM,2023-06-04 15:09:41
430,kerikeri,-35.2268,173.9474,9.99,91,40,3.31,NZ,2023-06-04 15:09:41
431,severnoye,56.3491,78.3619,24.74,56,0,2.96,RU,2023-06-04 15:09:41
432,nayoro,44.3506,142.4578,6.73,92,100,5.28,JP,2023-06-04 15:09:41
433,alamos,27.0167,-108.9333,27.8,23,100,0.35,MX,2023-06-04 15:09:41
434,yanam,16.7333,82.2167,26.45,66,100,5.11,IN,2023-06-04 15:09:41
435,kaga bandoro,6.9896,19.1874,22.44,95,100,1.9,CF,2023-06-04 15:09:41
436,aoulef,26.9667,1.0833,38.38,9,1,7.93,DZ,2023-06-04 15:09:42
437,port douglas,-16.4833,145.4667,22.78,89,94,4.59,AU,2023-06-04 15:09:42
438,tazacorte,28.629,-17.9293,23.54,85,75,3.09,ES,2023-06-04 15:09:42
439,labytnangi,66.6572,66.4183,18.55,57,79,5.57,RU,2023-06-04 15:09:42
440,bouarfa,32.53,-1.95,26.63,20,82,5.6,MA,2023-06-04 15:09:42
441,wanning,18.8003,110.3967,27.54,88,18,1.94,CN,2023-06-04 15:09:42
442,livani,56.3543,26.1758,10.61,94,100,2.65,LV,2023-06-04 15:09:42
443,yaren,-0.5472,166.916,28.79,75,17,4.63,NR,2023-06-04 15:09:43
444,kristiansund,63.1115,7.732,14.03,76,75,5.66,NO,2023-06-04 15:09:43
445,tarinkot,32.6268,65.8733,28.62,13,0,0.97,AF,2023-06-04 15:09:43
446,kolonia,50.9333,6.95,26.13,29,0,1.54,DE,2023-06-04 15:09:43
447,zyrya,40.3661,50.2917,28.05,70,0,3.38,AZ,2023-06-04 15:09:43
448,timaru,-44.4,171.25,5.6,73,11,2.24,NZ,2023-06-04 15:09:43
449,kayangel,8.0823,134.7173,27.46,83,100,6.68,PW,2023-06-04 15:09:43
450,tual,-5.6667,132.75,27.6,81,43,8.77,ID,2023-06-04 15:09:44
451,tofol,5.3248,163.0078,28.42,75,100,3.9,FM,2023-06-04 15:09:44
452,puerto baquerizo moreno,-0.9,-89.6,26.55,89,75,6.69,EC,2023-06-04 15:09:44
453,hurghada,27.2574,33.8129,34.2,31,100,11.84,EG,2023-06-04 15:07:07
454,jiwani,25.05,61.7417,30.88,73,0,3.83,PK,2023-06-04 15:09:44
455,hadibu,12.65,54.0333,30.06,74,87,1.37,YE,2023-06-04 15:09:44
456,as sulayyil,20.4607,45.5779,38.59,10,0,3.98,SA,2023-06-04 15:09:45
457,tres lagoas,-20.7511,-51.6783,26.54,44,0,2.64,BR,2023-06-04 15:09:45
458,leeton,-34.5667,146.4,13.27,69,100,6.79,AU,2023-06-04 15:09:45
459,guiuan,11.0333,125.7247,28.48,78,94,2.65,PH,2023-06-04 15:09:45
460,trujillo,-8.116,-79.03,22.98,83,100,3.6,PE,2023-06-04 15:09:45
461,cheremukhovo,60.3484,59.9851,22.98,56,70,0.79,RU,2023-06-04 15:09:46
462,nakamura,32.9833,132.9333,17.54,72,76,2.06,JP,2023-06-04 15:09:46
463,saurimo,-9.6608,20.3916,30.05,21,54,1.66,AO,2023-06-04 15:09:46
464,tuxpan,19.55,-103.4,18.87,38,0,1.37,MX,2023-06-04 15:09:46
465,badagry,6.4167,2.8833,29.82,69,58,5.5,NG,2023-06-04 15:09:46
466,port pirie,-33.1833,138.0167,17.55,67,100,1.48,AU,2023-06-04 15:09:46
467,juan griego,11.0817,-63.9655,29.95,67,56,5.78,VE,2023-06-04 15:09:46
468,gisborne,-38.6533,178.0042,10.79,85,100,1.96,NZ,2023-06-04 15:07:46
469,luderitz,-26.6481,15.1594,15.88,71,4,6.42,,2023-06-04 15:09:47
470,santana,-0.0583,-51.1817,31.1,70,40,4.12,BR,2023-06-04 15:09:47
471,nar'yan-mar,67.6713,53.087,19.94,59,84,4.1,RU,2023-06-04 15:09:47
472,yanbu,24.0891,38.0637,34.12,48,19,6.32,SA,2023-06-04 15:09:47
473,saint-philippe,-21.3585,55.7679,23.77,79,23,4.76,RE,2023-06-04 15:09:47
474,purpe,64.4803,76.6897,22.5,65,57,7.13,RU,2023-06-04 15:09:47
475,conceicao da barra,-18.5933,-39.7322,26.45,47,2,3.16,BR,2023-06-04 15:09:47
476,matthew town,20.95,-73.6667,28.59,75,0,7.03,BS,2023-06-04 15:09:48
477,borgo san dalmazzo,44.333,7.4858,17.17,90,99,1.59,IT,2023-06-04 15:09:48
478,quiroga,19.6667,-101.5333,25.52,28,0,0.71,MX,2023-06-04 15:09:48
479,sinabang,2.4803,96.3801,26.62,84,96,2.35,ID,2023-06-04 15:09:48
480,la roda,39.2167,-2.15,24.99,32,42,1.55,ES,2023-06-04 15:09:48
481,lincheng,19.9078,109.6858,27.8,83,5,4.87,CN,2023-06-04 15:09:49
482,birzai,56.2,24.75,12.21,82,100,3.2,LT,2023-06-04 15:09:49
483,pahrump,36.2083,-115.9839,25.73,22,68,0.89,US,2023-06-04 15:07:24
484,pirpirituba,-6.78,-35.4986,29.04,64,95,6.58,BR,2023-06-04 15:09:49
485,san juan,-31.5375,-68.5364,12.92,60,100,7.76,AR,2023-06-04 15:09:49
486,oriximina,-1.7656,-55.8661,30.18,64,62,2.05,BR,2023-06-04 15:06:34
487,portage la prairie,49.9728,-98.2926,24.96,88,86,0.96,CA,2023-06-04 15:09:49
488,urengoy,65.9667,78.3667,13.71,93,100,6.35,RU,2023-06-04 15:09:50
489,shizuishan,39.2333,106.7694,23.24,18,90,2.78,CN,2023-06-04 15:09:50
490,borogontsy,62.6683,131.1683,12.24,67,41,1.97,RU,2023-06-04 15:09:50
491,saipan,15.1355,145.701,27.39,100,20,4.63,MP,2023-06-04 15:09:51
492,buka,40.8108,69.1986,27.94,13,99,1.7,UZ,2023-06-04 15:09:51
493,brookings,44.3114,-96.7984,27.19,64,40,0.0,US,2023-06-04 15:09:51
494,maun,-19.9833,23.4167,30.12,20,4,3.05,BW,2023-06-04 15:09:52
495,rawah,34.4816,41.9093,34.01,15,49,7.01,IQ,2023-06-04 15:09:52
496,linhares,-19.3911,-40.0722,27.58,43,1,2.03,BR,2023-06-04 15:05:29
497,"kampung bukit tinggi, bentong",3.35,101.8167,25.44,94,99,0.3,MY,2023-06-04 15:09:52
498,sao joao da barra,-21.6403,-41.0511,26.05,65,0,4.08,BR,2023-06-04 15:05:17
499,ormara,25.2088,64.6357,28.61,86,0,8.0,PK,2023-06-04 15:09:52
500,lichinga,-13.3128,35.2406,22.05,56,20,3.09,MZ,2023-06-04 15:09:52
501,dazhou,31.2159,107.5009,17.79,95,100,1.69,CN,2023-06-04 15:09:53
502,xilin hot,43.9667,116.0333,13.2,44,6,1.8,CN,2023-06-04 15:05:21
503,magadi,12.9667,77.2333,25.09,59,86,2.77,IN,2023-06-04 15:09:53
504,san pedro,14.35,121.0167,27.57,89,75,1.03,PH,2023-06-04 15:09:53
505,broken hill,-31.95,141.4333,15.93,76,100,9.04,AU,2023-06-04 15:09:53
506,gudalur,9.6833,77.2667,25.52,90,94,3.54,IN,2023-06-04 15:09:53
507,rimouski,48.4488,-68.524,8.67,72,100,5.83,CA,2023-06-04 15:08:25
508,new plymouth,-39.0667,174.0833,12.67,86,100,7.45,NZ,2023-06-04 15:09:54
509,tumaco,1.7986,-78.8156,23.24,93,100,4.51,CO,2023-06-04 15:09:54
510,sao vicente,-23.9631,-46.3919,28.1,61,0,1.34,BR,2023-06-04 15:09:54
511,nadvoitsy,63.8667,34.3167,10.44,44,100,2.93,RU,2023-06-04 15:09:54
512,boden,65.8252,21.6886,15.0,35,100,2.13,SE,2023-06-04 15:09:54
513,arenapolis,-14.4503,-56.8461,32.26,40,0,2.04,BR,2023-06-04 15:09:54
514,sirte,31.2089,16.5887,24.49,60,100,11.13,LY,2023-06-04 15:09:54
515,changji,44.0167,87.3167,26.44,18,0,2.0,CN,2023-06-04 15:09:55
516,werneuchen,52.6328,13.7344,24.29,31,13,2.67,DE,2023-06-04 15:09:55
517,pamandzi,-12.7967,45.2794,27.88,69,20,3.09,YT,2023-06-04 15:06:45
518,magdagachi,53.45,125.8,12.01,61,4,1.68,RU,2023-06-04 15:09:55
519,alvarado,18.7667,-95.7667,26.18,87,100,2.27,MX,2023-06-04 15:09:55
520,hotan,37.0997,79.9269,23.48,23,26,0.64,CN,2023-06-04 15:09:55
521,morozovsk,48.3539,41.8261,19.82,63,4,5.84,RU,2023-06-04 15:09:55
522,usogorsk,63.4106,48.6872,8.12,81,100,4.14,RU,2023-06-04 15:09:56
523,big bend,-26.8167,31.9333,22.85,57,100,1.97,SZ,2023-06-04 15:09:56
524,onguday,50.75,86.15,16.5,70,78,0.86,RU,2023-06-04 15:09:56
525,puerto carreno,6.189,-67.4859,30.55,63,99,1.65,CO,2023-06-04 15:09:56
526,ciudad bolivar,8.1222,-63.5497,29.84,65,100,2.98,VE,2023-06-04 15:09:56
527,khorramshahr,30.4397,48.1664,42.98,8,0,7.2,IR,2023-06-04 15:09:56
528,sitangkai,4.6628,119.3928,29.17,69,46,0.95,PH,2023-06-04 15:09:57
529,paro,27.4305,89.4133,14.56,89,58,0.41,BT,2023-06-04 15:09:57
530,bereznik,62.8551,42.7072,9.79,58,97,3.88,RU,2023-06-04 15:09:57
531,north battleford,52.7834,-108.2847,19.11,100,100,5.66,CA,2023-06-04 15:07:12
532,bodaybo,57.8506,114.1933,9.17,75,57,1.72,RU,2023-06-04 15:09:57
533,zmeinogorsk,51.1567,82.195,20.13,72,9,3.19,RU,2023-06-04 15:09:57
534,korla,41.7597,86.1469,25.81,19,83,1.97,CN,2023-06-04 15:09:57
535,kyzylorda,44.8528,65.5092,35.01,10,0,2.0,KZ,2023-06-04 15:09:58
536,salekhard,66.53,66.6019,19.0,56,60,5.12,RU,2023-06-04 15:09:58
537,serhiyivka,46.0272,30.3768,19.59,42,0,3.47,UA,2023-06-04 15:09:58
538,megarine,33.192,6.087,33.02,27,99,11.08,DZ,2023-06-04 15:09:58
539,hadjout,36.5126,2.4138,23.78,63,22,3.74,DZ,2023-06-04 15:09:58
540,ambikapur,23.1167,83.2,29.79,26,6,1.64,IN,2023-06-04 15:09:58
541,fereydun kenar,36.6864,52.5225,26.0,66,3,3.72,IR,2023-06-04 15:09:59
542,yakakent,41.6325,35.5289,18.8,89,98,4.64,TR,2023-06-04 15:09:59
543,delijan,33.9905,50.6838,30.86,19,39,5.74,IR,2023-06-04 15:09:59
544,luanda,-8.8368,13.2343,25.0,65,75,4.63,AO,2023-06-04 15:09:59
545,boguchany,58.3814,97.4531,16.05,46,85,0.35,RU,2023-06-04 15:09:59
546,enschede,52.2183,6.8958,23.86,34,10,3.13,NL,2023-06-04 15:09:59
547,belmonte,-15.8631,-38.8828,25.45,63,76,4.3,BR,2023-06-04 15:09:59
548,sept-iles,50.2001,-66.3821,12.25,60,6,2.24,CA,2023-06-04 15:07:48
549,chintamani,13.4,78.0667,26.19,55,87,2.51,IN,2023-06-04 15:10:00
550,salmon arm,50.6998,-119.3024,21.35,48,0,0.77,CA,2023-06-04 15:09:09
551,fort mcmurray,56.7268,-111.381,17.73,100,100,3.6,CA,2023-06-04 15:10:00
552,broome,42.2506,-75.833,19.25,38,0,6.69,US,2023-06-04 15:10:00
553,n'dalatando,-9.2978,14.9116,28.19,47,100,2.92,AO,2023-06-04 15:10:01
554,wenxing,28.6667,112.8833,23.05,79,65,6.49,CN,2023-06-04 15:10:01
555,port saint john's,-31.6229,29.5448,18.15,77,23,3.66,ZA,2023-06-04 15:10:01
556,nantucket,41.2835,-70.0995,13.03,71,100,8.75,US,2023-06-04 15:07:43
557,yanaul,56.2719,54.9309,20.5,72,51,5.21,RU,2023-06-04 15:10:01
558,culebra,18.303,-65.301,31.05,83,8,9.36,PR,2023-06-04 15:10:01
559,nova xavantina,-14.6667,-52.35,31.11,34,0,2.65,BR,2023-06-04 15:10:02
560,bardai,11.65,7.2333,31.83,44,93,2.67,NG,2023-06-04 15:10:02
561,guroymak,38.5774,42.0281,21.84,51,3,3.67,TR,2023-06-04 15:09:18
562,mayahi,13.9553,7.6712,38.36,26,99,5.14,NE,2023-06-04 15:10:03
563,barmer,25.75,71.3833,36.96,31,0,1.28,IN,2023-06-04 15:07:15
564,bengkulu,-3.8004,102.2655,24.88,92,100,1.91,ID,2023-06-04 15:10:03
565,crucecita,-28.95,-58.9833,22.14,76,99,3.7,AR,2023-06-04 15:10:04
566,sandnessjoen,66.0217,12.6316,8.29,100,75,4.63,NO,2023-06-04 15:10:04
567,uslar,51.6569,9.635,22.76,44,7,3.24,DE,2023-06-04 15:10:04
568,la foa,-21.7108,165.8276,21.28,70,68,2.07,NC,2023-06-04 15:10:04
569,taltal,-25.4,-70.4833,18.87,68,20,1.7,CL,2023-06-04 15:10:05
570,am timan,11.0297,20.2827,28.67,53,100,3.34,TD,2023-06-04 15:10:05
571,constitucion,-35.3333,-72.4167,14.11,67,88,2.56,CL,2023-06-04 15:10:05
572,i-n-salah,27.1935,2.4607,38.87,8,0,8.12,DZ,2023-06-04 15:10:05
573,eaglehawk,-36.7333,144.25,13.09,60,100,3.13,AU,2023-06-04 15:10:06
574,afaahiti,-17.75,-149.2833,20.93,76,85,4.51,PF,2023-06-04 15:10:06
575,egersund,58.4513,5.9997,14.63,64,7,3.15,NO,2023-06-04 15:10:06
576,kibre mengist,5.8833,38.9833,17.8,91,100,1.06,ET,2023-06-04 15:10:06
577,opuwo,-18.0607,13.84,29.12,10,0,8.39,,2023-06-04 15:10:07
578,pecos,31.4229,-103.4932,22.91,64,0,2.06,US,2023-06-04 15:10:07
579,quellon,-43.1167,-73.6167,9.14,81,0,5.66,CL,2023-06-04 15:10:07
