City_ID,City,Lat,Lng,Max Temp,Humidity,Cloudiness,Wind Speed,Country,Date,Time
0,serowe,-22.3833,26.7167,16.79,29,0,1.71,BW,2023-06-05,18:30:00
1,sindgi,16.9167,76.2333,28.81,54,56,8.61,IN,2023-06-05,18:30:00
2,mount gambier,-37.8333,140.7667,14.17,84,34,4.77,AU,2023-06-05,18:30:00
3,jamestown,42.097,-79.2353,20.01,45,0,2.06,US,2023-06-05,18:25:23
4,grytviken,-54.2811,-36.5092,2.36,97,100,2.04,GS,2023-06-05,18:30:00
5,edinburgh of the seven seas,-37.0676,-12.3116,12.01,78,100,10.88,SH,2023-06-05,18:25:30
6,qaqortoq,60.7167,-46.0333,3.07,80,94,1.11,GL,2023-06-05,18:30:01
7,adamstown,-25.066,-130.1015,20.78,64,52,9.67,PN,2023-06-05,18:30:01
8,punta arenas,-53.15,-70.9167,3.06,93,0,4.12,CL,2023-06-05,18:22:37
9,port-aux-francais,-49.35,70.2167,2.84,63,58,16.19,TF,2023-06-05,18:30:01
10,celestun,20.8667,-90.4,28.47,73,59,6.7,MX,2023-06-05,18:30:02
11,mount pleasant,32.7941,-79.8626,25.66,68,0,2.57,US,2023-06-05,18:26:11
12,waitangi,-43.9535,-176.5597,10.46,82,100,0.89,NZ,2023-06-05,18:30:02
13,thinadhoo,0.5333,72.9333,28.26,72,100,1.26,MV,2023-06-05,18:30:02
14,albany,42.6001,-73.9662,20.36,51,100,2.89,US,2023-06-05,18:27:29
15,bredasdorp,-34.5322,20.0403,8.44,75,51,1.86,ZA,2023-06-05,18:30:03
16,al bawiti,28.3492,28.8659,23.12,34,30,4.09,EG,2023-06-05,18:30:03
17,madalena,41.2162,-8.3345,19.75,80,85,1.12,PT,2023-06-05,18:30:04
18,nemuro,43.3236,145.575,11.35,79,2,1.22,JP,2023-06-05,18:30:04
19,kill devil hills,36.0307,-75.676,21.0,74,0,3.09,US,2023-06-05,18:30:04
20,sumbe,-11.2061,13.8437,21.59,92,16,1.36,AO,2023-06-05,18:30:04
21,west island,-12.1568,96.8225,25.99,78,75,6.17,CC,2023-06-05,18:30:04
22,laela,-8.5667,32.05,14.0,78,53,1.5,TZ,2023-06-05,18:30:05
23,quellon,-43.1167,-73.6167,12.14,82,75,6.17,CL,2023-06-05,18:30:05
24,luderitz,-26.6481,15.1594,14.11,53,0,0.09,NA,2023-06-05,18:30:05
25,kenai,60.5544,-151.2583,21.05,27,20,6.17,US,2023-06-05,18:30:05
26,wailua homesteads,22.0669,-159.378,26.59,72,0,4.12,US,2023-06-05,18:30:06
27,margaret river,-33.95,115.0667,10.74,71,100,10.49,AU,2023-06-05,18:28:52
28,sabang,5.8933,95.3214,28.44,73,100,8.88,ID,2023-06-05,18:30:06
29,puerto natales,-51.7236,-72.4875,0.69,93,52,1.55,CL,2023-06-05,18:30:06
30,lebu,-37.6167,-73.65,12.88,90,99,4.0,CL,2023-06-05,18:27:49
31,valdivia,-39.8142,-73.2459,14.05,96,100,4.19,CL,2023-06-05,18:28:12
32,sao francisco,-15.9486,-44.8644,18.91,35,1,1.32,BR,2023-06-05,18:30:07
33,aasiaat,68.7098,-52.8699,-1.07,83,93,4.2,GL,2023-06-05,18:30:07
34,san antonio de pale,-1.4014,5.6325,25.02,86,80,5.62,GQ,2023-06-05,18:30:07
35,khandyga,62.6667,135.6,16.27,54,90,2.76,RU,2023-06-05,18:30:08
36,lospalos,-8.5186,127.0025,24.83,67,46,3.62,TL,2023-06-05,18:30:08
37,yellowknife,62.456,-114.3525,21.29,56,75,3.6,CA,2023-06-05,18:24:31
38,swan hill,-35.3378,143.5544,15.54,84,92,5.06,AU,2023-06-05,18:30:08
39,bilibino,68.0546,166.4372,12.14,52,100,2.26,RU,2023-06-05,18:30:08
40,mahina,-17.5065,-149.489,28.87,61,40,4.12,PF,2023-06-05,18:30:08
41,kismayo,-0.3582,42.5454,26.14,81,44,6.36,SO,2023-06-05,18:30:09
42,santana,-0.0583,-51.1817,28.1,83,20,3.09,BR,2023-06-05,18:30:09
43,hilo,19.7297,-155.09,29.04,72,40,5.14,US,2023-06-05,18:30:09
44,georgetown,5.4112,100.3354,26.96,89,40,3.09,MY,2023-06-05,18:29:06
45,talnakh,69.4865,88.3972,9.56,64,100,4.28,RU,2023-06-05,18:30:09
46,zhanaozen,43.3,52.8,21.9,63,48,3.14,KZ,2023-06-05,18:30:10
47,port hueneme,34.1478,-119.1951,21.08,71,100,5.14,US,2023-06-05,18:26:03
48,cuenca,-2.8833,-78.9833,17.07,63,75,3.09,EC,2023-06-05,18:30:10
49,rio grande,-32.035,-52.0986,12.06,72,68,1.8,BR,2023-06-05,18:30:10
50,ribeira grande,38.5167,-28.7,18.21,87,100,5.81,PT,2023-06-05,18:30:10
51,tamanrasset,22.785,5.5228,23.95,16,0,2.06,DZ,2023-06-05,18:30:10
52,keflavik,64.0049,-22.5624,7.95,76,75,5.14,IS,2023-06-05,18:30:11
53,blackmans bay,-43.0167,147.3167,10.41,87,79,4.43,AU,2023-06-05,18:30:11
54,itaituba,-4.2761,-55.9836,25.1,78,21,0.62,BR,2023-06-05,18:30:11
55,perry,37.2506,-83.1999,28.1,64,61,1.78,US,2023-06-05,18:30:11
56,utrik,11.2278,169.8474,26.92,81,97,9.6,MH,2023-06-05,18:30:11
57,tyukhtet,56.5389,89.3011,21.97,61,0,0.92,RU,2023-06-05,18:30:12
58,hailar,49.2,119.7,16.24,30,38,2.71,CN,2023-06-05,18:30:12
59,leninsk,48.7119,45.1994,13.51,75,55,3.44,RU,2023-06-05,18:30:12
60,matozinhos,-19.5578,-44.0814,19.24,59,0,4.12,BR,2023-06-05,18:30:12
61,nizhniy kuranakh,58.8353,125.4869,9.83,60,85,3.19,RU,2023-06-05,18:30:12
62,ilulissat,69.2167,-51.1,0.01,74,75,6.17,GL,2023-06-05,18:30:12
63,stanley,54.868,-1.6985,10.85,88,75,1.54,GB,2023-06-05,18:20:41
64,general roca,-39.0333,-67.5833,14.79,24,98,4.63,AR,2023-06-05,18:30:13
65,kingston,17.997,-76.7936,30.12,79,20,3.6,JM,2023-06-05,18:21:33
66,ust-nera,64.5667,143.2,15.98,33,55,1.79,RU,2023-06-05,18:30:13
67,namibe,-15.1961,12.1522,19.78,63,3,4.65,AO,2023-06-05,18:30:13
68,bethel,41.3712,-73.414,22.09,55,100,2.57,US,2023-06-05,18:30:13
69,afaahiti,-17.75,-149.2833,27.93,72,35,4.22,PF,2023-06-05,18:30:13
70,palmer,42.1584,-72.3287,19.65,66,75,0.0,US,2023-06-05,18:30:14
71,ushuaia,-54.8,-68.3,2.81,87,0,1.54,AR,2023-06-05,18:30:14
72,isafjordur,66.0755,-23.124,5.85,89,100,0.92,IS,2023-06-05,18:30:14
73,semirom,31.4167,51.5667,14.41,29,5,1.31,IR,2023-06-05,18:30:14
74,san rafael del sur,11.8485,-86.4384,30.54,81,92,2.31,NI,2023-06-05,18:30:14
75,hermanus,-34.4187,19.2345,6.56,70,27,2.34,ZA,2023-06-05,18:30:15
76,riacho de santana,-13.6092,-42.9389,20.7,44,0,2.6,BR,2023-06-05,18:30:15
77,thompson,55.7435,-97.8558,26.09,53,75,3.09,CA,2023-06-05,18:30:15
78,alaghsas,17.0187,8.0168,32.95,14,28,3.64,NE,2023-06-05,18:30:15
79,mountain home,43.133,-115.6912,27.71,32,40,4.12,US,2023-06-05,18:30:15
80,port lincoln,-34.7333,135.8667,15.23,66,0,7.14,AU,2023-06-05,18:25:21
81,borisoglebskiy,57.2586,39.1508,6.37,90,18,3.18,RU,2023-06-05,18:30:15
82,port alfred,-33.5906,26.891,13.54,67,100,2.56,ZA,2023-06-05,18:30:16
83,salinopolis,-0.6136,-47.3561,25.49,88,37,4.54,BR,2023-06-05,18:30:16
84,mugia,43.1041,-9.2179,17.17,84,13,2.48,ES,2023-06-05,18:30:16
85,ridder,50.355,83.5133,18.94,59,1,2.11,KZ,2023-06-05,18:30:16
86,vila velha,-20.3297,-40.2925,21.08,89,20,1.54,BR,2023-06-05,18:30:17
87,katra,32.9833,74.95,18.67,58,0,4.22,IN,2023-06-05,18:30:17
88,sitka,57.0531,-135.33,9.94,76,75,4.63,US,2023-06-05,18:30:17
89,enewetak,11.3474,162.3373,27.87,80,87,3.73,MH,2023-06-05,18:30:17
90,la ronge,55.1001,-105.2842,31.14,35,75,3.09,CA,2023-06-05,18:30:17
91,remire-montjoly,4.9167,-52.2667,27.02,83,0,1.03,GF,2023-06-05,18:30:17
92,balikpapan,-1.2675,116.8289,24.55,94,20,3.09,ID,2023-06-05,18:30:17
93,lagunas,-5.2269,-75.6753,22.66,96,62,1.15,PE,2023-06-05,18:30:18
94,udachny,66.4167,112.4,1.36,80,93,6.16,RU,2023-06-05,18:30:18
95,olonkinbyen,70.9221,-8.7187,-0.12,85,53,2.62,SJ,2023-06-05,18:30:18
96,iqaluit,63.7506,-68.5145,2.61,74,75,2.06,CA,2023-06-05,18:30:18
97,selfoss,63.9331,-20.9971,7.25,74,24,3.57,IS,2023-06-05,18:18:58
98,invercargill,-46.4,168.35,7.34,78,26,1.58,NZ,2023-06-05,18:30:18
99,puerto ayora,-0.7393,-90.3518,26.42,94,84,2.68,EC,2023-06-05,18:30:19
100,felege neway,6.3,36.8833,17.92,88,99,1.04,ET,2023-06-05,18:30:19
101,villa gesell,-37.2639,-56.973,8.36,66,75,4.64,AR,2023-06-05,18:23:16
102,olsberg,51.35,8.5,12.68,87,30,0.98,DE,2023-06-05,18:30:19
103,luancheng,37.8792,114.6517,25.09,18,6,2.41,CN,2023-06-05,18:30:19
104,northport,33.229,-87.5772,26.9,65,0,1.54,US,2023-06-05,18:30:19
105,labrador city,52.9463,-66.9114,8.95,76,75,6.17,CA,2023-06-05,18:30:11
106,sao joao da barra,-21.6403,-41.0511,20.05,83,0,2.21,BR,2023-06-05,18:30:19
107,whitehorse,60.7161,-135.0538,16.43,51,100,5.66,CA,2023-06-05,18:26:27
108,constantia,44.1833,28.65,12.61,62,13,4.1,RO,2023-06-05,18:30:20
109,port saint john's,-31.6229,29.5448,14.79,57,98,2.12,ZA,2023-06-05,18:30:20
110,castillos,-34.1667,-53.8333,9.31,83,49,0.87,UY,2023-06-05,18:30:20
111,port mathurin,-19.6833,63.4167,24.7,72,14,10.19,MU,2023-06-05,18:30:20
112,hawaiian paradise park,19.5933,-154.9731,27.8,73,40,5.14,US,2023-06-05,18:30:20
113,alpine,32.835,-116.7664,22.17,60,75,4.63,US,2023-06-05,18:30:21
114,nar'yan-mar,67.6713,53.087,4.5,72,90,10.78,RU,2023-06-05,18:30:21
115,williams lake,52.1415,-122.1445,17.76,21,75,1.54,CA,2023-06-05,18:30:21
116,kapuskasing,49.4169,-82.4331,16.05,44,20,5.66,CA,2023-06-05,18:30:21
117,college,64.8569,-147.8028,22.48,28,40,2.06,US,2023-06-05,18:27:25
118,bonny,4.4522,7.1681,25.77,88,100,3.97,NG,2023-06-05,18:30:21
119,bonthe,7.5264,-12.505,26.06,87,98,3.23,SL,2023-06-05,18:30:22
120,papatowai,-46.5619,169.4708,9.48,68,19,2.42,NZ,2023-06-05,18:30:22
121,turbat,26.0023,63.044,32.94,30,42,1.71,PK,2023-06-05,18:30:22
122,port elizabeth,-33.918,25.5701,9.16,81,0,1.03,ZA,2023-06-05,18:30:22
123,rongelap,11.1635,166.8941,27.89,78,72,7.8,MH,2023-06-05,18:30:22
124,klyuchi,52.2667,79.1667,22.55,58,8,3.01,RU,2023-06-05,18:30:22
125,kodiak,57.79,-152.4072,7.73,93,100,9.26,US,2023-06-05,18:30:23
126,vadso,70.0744,29.7487,3.49,81,75,6.69,NO,2023-06-05,18:30:23
127,nova sintra,14.8667,-24.7167,20.82,80,8,2.75,CV,2023-06-05,18:30:23
128,joao pinheiro,-17.7425,-46.1725,17.27,41,99,2.1,BR,2023-06-05,18:30:23
129,longyearbyen,78.2186,15.6401,-2.77,83,40,0.17,SJ,2023-06-05,18:30:23
130,hamilton,39.1834,-84.5333,27.12,33,0,4.63,US,2023-06-05,18:26:56
131,queenstown,-31.8976,26.8753,6.76,42,100,1.55,ZA,2023-06-05,18:30:24
132,sant antoni de portmany,38.9807,1.3036,19.98,86,0,2.24,ES,2023-06-05,18:30:24
133,katabu,-4.9333,122.5167,26.36,73,25,2.75,ID,2023-06-05,18:30:24
134,dhidhdhoo,6.8833,73.1,27.88,77,100,4.35,MV,2023-06-05,18:30:24
135,puerto baquerizo moreno,-0.9,-89.6,25.94,83,91,4.52,EC,2023-06-05,18:30:24
136,vilyuchinsk,52.9306,158.4028,11.15,87,100,1.61,RU,2023-06-05,18:30:25
137,cascais,38.6979,-9.4215,21.7,68,69,4.47,PT,2023-06-05,18:30:25
138,myeik,12.4333,98.6,27.29,84,100,5.86,MM,2023-06-05,18:30:25
139,tari,12.4086,4.4914,30.99,50,94,2.52,NG,2023-06-05,18:30:25
140,fort mcmurray,56.7268,-111.381,25.77,65,75,3.09,CA,2023-06-05,18:30:10
141,iskateley,67.6803,53.1512,4.46,72,90,10.68,RU,2023-06-05,18:30:25
142,minas de marcona,-15.2119,-75.1103,14.18,82,4,4.4,PE,2023-06-05,18:30:25
143,montagu,-40.7667,144.9667,13.83,92,100,5.86,AU,2023-06-05,18:30:26
144,mahibadhoo,3.7833,72.9667,27.99,77,99,5.24,MV,2023-06-05,18:30:26
145,amga,60.8953,131.9608,14.5,50,99,2.98,RU,2023-06-05,18:30:26
146,kilindoni,-7.9139,39.6668,26.02,75,5,5.52,TZ,2023-06-05,18:30:26
147,tabuk,17.4189,121.4443,25.95,85,47,1.47,PH,2023-06-05,18:22:24
148,babu,24.4167,111.5167,26.28,90,35,1.66,CN,2023-06-05,18:30:26
149,cape coast,5.1053,-1.2466,26.1,86,100,4.07,GH,2023-06-05,18:30:26
150,richards bay,-28.783,32.0377,17.12,62,80,1.44,ZA,2023-06-05,18:30:27
151,qorveh,35.1664,47.8045,15.9,35,89,1.18,IR,2023-06-05,18:30:27
152,yingkou,40.6648,122.2283,19.76,72,57,2.58,CN,2023-06-05,18:30:27
153,nyagan,62.1406,65.3936,12.11,59,0,1.42,RU,2023-06-05,18:30:27
154,corralejo,28.7424,-13.8684,22.06,78,91,2.38,ES,2023-06-05,18:30:27
155,callao,-12.0667,-77.15,23.16,73,100,7.2,PE,2023-06-05,18:30:27
156,kalmunai,7.4167,81.8167,26.75,79,87,1.27,LK,2023-06-05,18:30:28
157,petropavlovsk-kamchatsky,53.0452,158.6483,10.33,58,75,2.0,RU,2023-06-05,18:30:28
158,dwarka,22.2394,68.9678,28.11,83,10,7.52,IN,2023-06-05,18:30:28
159,pregradnaya,43.9508,41.1994,13.19,98,100,0.23,RU,2023-06-05,18:30:28
160,margate,51.3813,1.3862,11.61,75,15,4.02,GB,2023-06-05,18:30:28
161,lawas,13.764,121.0566,28.37,76,83,1.69,PH,2023-06-05,18:30:29
162,tiksi,71.6872,128.8694,1.9,94,100,1.54,RU,2023-06-05,18:30:29
163,touros,-5.1989,-35.4608,25.33,83,31,4.98,BR,2023-06-05,18:30:29
164,tazovsky,67.4667,78.7,7.62,97,63,3.98,RU,2023-06-05,18:30:30
165,ingeniero jacobacci,-41.3427,-69.5448,11.0,71,79,9.16,AR,2023-06-05,18:30:30
166,khorugh,37.4897,71.553,9.92,82,23,0.24,TJ,2023-06-05,18:30:30
167,new norfolk,-42.7826,147.0587,13.29,81,94,1.13,AU,2023-06-05,18:30:30
168,kourou,5.1552,-52.6478,27.03,90,20,3.1,GF,2023-06-05,18:30:07
169,happy valley-goose bay,53.3168,-60.3315,13.17,54,75,6.17,CA,2023-06-05,18:30:30
170,saipan,15.1355,145.701,29.39,100,40,8.23,MP,2023-06-05,18:30:31
171,sandnessjoen,66.0217,12.6316,4.29,69,100,2.16,NO,2023-06-05,18:30:31
172,ko pha ngan,9.7578,100.0291,26.38,77,100,7.94,TH,2023-06-05,18:30:31
173,haiku-pauwela,20.9219,-156.3051,28.01,51,40,11.32,US,2023-06-05,18:30:31
174,rio preto da eva,-2.6994,-59.6997,24.27,93,73,0.3,BR,2023-06-05,18:30:31
175,nguruka,-5.1092,31.0419,18.06,69,84,0.75,TZ,2023-06-05,18:30:31
176,lerwick,60.1545,-1.1494,10.0,75,99,3.29,GB,2023-06-05,18:30:32
177,topolobampo,25.6,-109.05,30.95,29,20,6.17,MX,2023-06-05,18:30:32
178,bubaque,11.2833,-15.8333,27.52,72,100,7.61,GW,2023-06-05,18:30:32
179,praia,14.9215,-23.5087,23.3,83,0,2.57,CV,2023-06-05,18:30:32
180,acarau,-2.8856,-40.12,26.09,82,14,5.5,BR,2023-06-05,18:30:32
181,darwin,-12.4611,130.8418,25.99,82,20,1.54,AU,2023-06-05,18:30:02
182,prachuap khiri khan,12.2167,99.75,25.25,79,100,2.76,TH,2023-06-05,18:30:33
183,juruti,-2.1522,-56.0922,26.46,76,31,1.84,BR,2023-06-05,18:30:33
184,contamana,-7.3333,-75.0167,23.2,98,69,0.39,PE,2023-06-05,18:30:33
185,holmsund,63.706,20.3641,7.19,56,0,3.13,SE,2023-06-05,18:30:33
186,elbasan,41.1125,20.0822,18.4,83,95,1.45,AL,2023-06-05,18:30:12
187,hillsborough,37.5741,-122.3794,25.46,69,75,7.2,US,2023-06-05,18:30:34
188,tomatlan,19.9333,-105.25,29.05,53,0,4.71,MX,2023-06-05,18:30:34
189,san patricio,28.017,-97.5169,29.54,69,65,4.67,US,2023-06-05,18:30:34
190,lihue,21.9789,-159.3672,26.92,68,0,4.12,US,2023-06-05,18:30:34
191,putina,-15.4667,-69.4333,6.25,72,1,4.49,PE,2023-06-05,18:30:34
192,sveti nikole,41.8696,21.9527,15.47,89,96,1.53,MK,2023-06-05,18:30:34
193,skovorodino,53.9833,123.9167,6.7,89,100,2.76,RU,2023-06-05,18:30:34
194,tilisarao,-32.7329,-65.2911,13.51,77,39,3.51,AR,2023-06-05,18:30:35
195,fale old settlement,-9.3852,-171.2468,28.44,75,11,4.96,TK,2023-06-05,18:30:35
196,nuku'alofa,-21.1333,-175.2,26.19,69,75,5.66,TO,2023-06-05,18:30:35
197,kapa'a,22.0752,-159.319,27.33,71,0,4.12,US,2023-06-05,18:30:35
198,ellsworth,44.5434,-68.4195,12.7,96,100,3.6,US,2023-06-05,18:21:44
199,alice,27.7523,-98.0697,29.19,65,0,3.09,US,2023-06-05,18:29:15
200,scottburgh,-30.2867,30.7532,14.73,63,98,3.12,ZA,2023-06-05,18:30:35
201,bathsheba,13.2167,-59.5167,27.34,89,75,3.6,BB,2023-06-05,18:30:36
202,badger,64.8,-147.5333,22.14,27,20,2.06,US,2023-06-05,18:30:36
203,lompoc,34.6391,-120.4579,20.43,82,100,4.63,US,2023-06-05,18:30:36
204,altay,47.8667,88.1167,21.86,41,0,2.53,CN,2023-06-05,18:30:36
205,pitimbu,-7.4706,-34.8086,25.33,80,25,3.74,BR,2023-06-05,18:30:36
206,bardai,11.65,7.2333,26.4,65,86,6.67,NG,2023-06-05,18:30:37
207,naha,26.2125,127.6811,27.15,78,40,7.2,JP,2023-06-05,18:30:37
208,hithadhoo,-0.6,73.0833,27.94,74,96,1.29,MV,2023-06-05,18:30:37
209,beipiao,41.7919,120.7792,23.04,33,4,6.08,CN,2023-06-05,18:30:37
210,altai,46.3722,96.2583,13.49,44,26,2.03,MN,2023-06-05,18:30:37
211,lorengau,-2.0226,147.2712,29.51,72,12,4.15,PG,2023-06-05,18:30:38
212,aracataca,10.5918,-74.1898,28.94,75,100,1.85,CO,2023-06-05,18:30:38
213,znamenskoye,57.1281,73.8282,20.83,68,39,1.19,RU,2023-06-05,18:30:38
214,alesund,62.4723,6.1549,11.06,82,100,5.66,NO,2023-06-05,18:30:38
215,totness,5.8833,-56.3167,25.66,89,67,4.04,SR,2023-06-05,18:30:38
216,dudinka,69.4058,86.1778,9.79,55,100,3.87,RU,2023-06-05,18:30:38
217,san miguel,13.4833,-88.1833,32.78,52,0,3.09,SV,2023-06-05,18:30:38
218,pangody,65.85,74.4859,10.83,83,33,6.43,RU,2023-06-05,18:30:39
219,westport,41.1415,-73.3579,22.83,62,100,4.12,US,2023-06-05,18:30:25
220,charters towers,-20.1,146.2667,23.23,63,0,5.9,AU,2023-06-05,18:30:39
221,st. john's,47.5649,-52.7093,7.38,96,100,2.06,CA,2023-06-05,18:30:03
222,uturoa,-16.7333,-151.4333,26.76,70,5,3.58,PF,2023-06-05,18:30:39
223,el higo,21.7667,-98.4667,32.07,41,58,6.8,MX,2023-06-05,18:30:39
224,rockland,41.1668,-74.0496,23.02,50,99,0.45,US,2023-06-05,18:30:40
225,carnarvon,-24.8667,113.6333,19.16,58,99,8.02,AU,2023-06-05,18:30:40
226,hasaki,35.7333,140.8333,25.12,75,100,6.27,JP,2023-06-05,18:30:40
227,avarua,-21.2078,-159.775,24.03,53,20,2.57,CK,2023-06-05,18:30:40
228,susuman,62.7833,148.1667,14.63,36,12,4.74,RU,2023-06-05,18:30:40
229,mora,11.0461,14.1401,30.15,50,94,0.95,CM,2023-06-05,18:30:40
230,egilsstadir,65.2653,-14.3948,7.95,71,75,4.63,IS,2023-06-05,18:30:40
231,paita,-5.0892,-81.1144,23.53,82,7,6.1,PE,2023-06-05,18:30:41
232,crookston,47.7741,-96.6081,30.95,48,40,4.63,US,2023-06-05,18:30:41
233,cabo san lucas,22.8909,-109.9124,33.61,37,0,5.66,MX,2023-06-05,18:29:43
234,jincheng,35.5022,112.8328,22.63,46,2,2.58,CN,2023-06-05,18:30:41
235,vorgashor,67.5833,63.95,9.13,67,14,7.16,RU,2023-06-05,18:30:41
236,dabhol,17.6,73.1667,27.41,78,58,2.07,IN,2023-06-05,18:30:42
237,ghat,24.9647,10.1728,29.97,10,1,2.37,LY,2023-06-05,18:30:42
238,necochea,-38.5473,-58.7368,11.19,51,98,6.33,AR,2023-06-05,18:26:51
239,keren,15.7778,38.4581,24.32,51,2,1.58,ER,2023-06-05,18:30:42
240,tura,25.5198,90.2201,25.94,57,0,2.09,IN,2023-06-05,18:30:42
241,leava,-14.3,-178.1667,26.18,82,100,4.97,WF,2023-06-05,18:30:42
242,manaure,11.7751,-72.4445,28.21,82,99,5.03,CO,2023-06-05,18:30:43
243,inhambane,-23.865,35.3833,22.55,91,0,1.07,MZ,2023-06-05,18:30:43
244,cidreira,-30.1811,-50.2056,16.11,70,81,2.7,BR,2023-06-05,18:29:46
245,garoowe,8.4054,48.4845,25.32,73,91,8.54,SO,2023-06-05,18:30:43
246,arraial do cabo,-22.9661,-42.0278,20.98,94,40,3.6,BR,2023-06-05,18:30:43
247,beaufort,5.3473,115.7455,23.88,94,100,1.13,MY,2023-06-05,18:27:48
248,laguna,38.421,-121.4238,28.57,51,0,4.63,US,2023-06-05,18:30:43
249,kailua-kona,19.6406,-155.9956,27.93,74,40,4.63,US,2023-06-05,18:30:43
250,sesimbra,38.4445,-9.1015,21.59,68,96,2.61,PT,2023-06-05,18:30:44
251,douglas,41.3,-96.167,31.1,43,75,3.6,US,2023-06-05,18:28:16
252,geraldton,-28.7667,114.6,14.23,82,75,10.8,AU,2023-06-05,18:26:21
253,korla,41.7597,86.1469,23.26,26,5,3.0,CN,2023-06-05,18:30:48
254,masvingo,-20.0637,30.8277,17.78,35,0,2.83,ZW,2023-06-05,18:30:48
255,carbonear,47.7332,-53.2148,7.64,95,100,4.17,CA,2023-06-05,18:30:49
256,progreso,21.2833,-89.6667,31.17,77,46,6.81,MX,2023-06-05,18:30:49
257,saint-aubin-de-medoc,44.75,-0.7167,20.94,81,0,3.09,FR,2023-06-05,18:30:49
258,cukai,4.25,103.4167,23.97,89,100,1.27,MY,2023-06-05,18:30:50
259,dalnegorsk,44.5604,135.5701,21.15,47,90,1.72,RU,2023-06-05,18:30:50
260,terra boa,-23.7681,-52.4442,15.42,73,0,1.5,BR,2023-06-05,18:30:50
261,polovinnoye,54.7914,65.9864,17.65,75,9,5.03,RU,2023-06-05,18:30:50
262,fort bragg,35.139,-79.006,26.01,52,0,4.63,US,2023-06-05,18:29:36
263,santa terezinha,-29.9002,-50.0904,15.98,74,94,1.71,BR,2023-06-05,18:30:51
264,puerto real,36.5282,-6.1901,22.56,68,0,1.54,ES,2023-06-05,18:30:51
265,island harbour,50.724,-1.2758,12.77,82,0,2.24,GB,2023-06-05,18:30:51
266,auki,-8.7676,160.7034,29.68,66,32,1.03,SB,2023-06-05,18:30:53
267,bermeo,43.4209,-2.7215,20.39,86,91,2.07,ES,2023-06-05,18:30:38
268,anadyr,64.75,177.4833,6.28,86,75,10.0,RU,2023-06-05,18:30:53
269,daloa,6.8774,-6.4502,23.02,98,99,1.71,CI,2023-06-05,18:30:53
270,carauari,-4.8828,-66.8958,23.46,97,70,1.28,BR,2023-06-05,18:30:54
271,el tigre,8.8875,-64.2454,26.74,77,99,0.71,VE,2023-06-05,18:30:54
272,balkanabat,39.5108,54.3671,30.94,25,91,4.33,TM,2023-06-05,18:30:54
273,el nido,11.1858,119.3956,28.15,81,98,4.17,PH,2023-06-05,18:30:54
274,acapulco de juarez,16.8634,-99.8901,30.9,62,20,4.12,MX,2023-06-05,18:27:56
275,olyokminsk,60.3736,120.4264,13.23,41,53,3.2,RU,2023-06-05,18:30:55
276,belton,38.812,-94.5319,29.28,79,75,0.45,US,2023-06-05,18:22:11
277,prince george,53.9166,-122.753,16.69,35,100,5.14,CA,2023-06-05,18:26:01
278,mount pearl,47.5166,-52.7813,6.92,96,100,2.06,CA,2023-06-05,18:30:55
279,kristiansund,63.1115,7.732,9.36,76,75,4.12,NO,2023-06-05,18:30:56
280,tumpat,6.1978,102.171,24.99,88,20,1.54,MY,2023-06-05,18:30:56
281,sechura,-5.5569,-80.8222,25.24,69,12,7.46,PE,2023-06-05,18:30:56
282,ciudad insurgentes,25.2625,-111.7753,22.84,46,64,7.72,MX,2023-06-05,18:30:57
283,dori,14.0354,-0.0345,35.54,22,34,2.8,BF,2023-06-05,18:30:57
284,pontchateau,47.4333,-2.0833,20.99,77,0,3.6,FR,2023-06-05,18:30:57
285,northam,51.0333,-4.2167,12.56,79,0,3.11,GB,2023-06-05,18:30:57
286,moratuwa,6.773,79.8816,28.01,87,100,2.87,LK,2023-06-05,18:30:58
287,pechora,65.1472,57.2244,9.37,78,26,5.35,RU,2023-06-05,18:30:58
288,cururupu,-1.8283,-44.8683,23.11,98,7,1.52,BR,2023-06-05,18:30:58
289,wewak,-3.5534,143.6268,28.33,77,76,3.46,PG,2023-06-05,18:30:59
290,tsiombe,-25.3,45.4833,20.4,81,15,2.03,MG,2023-06-05,18:30:59
291,ishigaki,24.3448,124.1572,27.07,89,40,6.69,JP,2023-06-05,18:30:59
292,vila franca do campo,37.7167,-25.4333,17.23,91,100,8.21,PT,2023-06-05,18:30:59
293,asau,46.4333,26.4,13.51,84,96,0.83,RO,2023-06-05,18:31:00
294,lesnoy,57.6198,63.0784,10.05,68,10,1.64,RU,2023-06-05,18:31:00
295,manta,-0.95,-80.7333,27.88,89,40,5.81,EC,2023-06-05,18:26:24
296,san jeronimo,-11.9472,-75.2829,8.91,75,12,2.8,PE,2023-06-05,18:31:00
297,kolonia town,6.964,158.206,32.0,66,75,4.12,FM,2023-06-05,18:31:01
298,behshahr,36.6923,53.5526,26.11,61,100,3.21,IR,2023-06-05,18:31:01
299,dryden,49.7833,-92.7503,21.16,73,100,2.57,CA,2023-06-05,18:31:01
300,gadzhiyevo,69.2551,33.3362,2.44,97,100,9.8,RU,2023-06-05,18:31:01
301,pamandzi,-12.7967,45.2794,24.88,83,0,2.06,YT,2023-06-05,18:31:02
302,ta`u,-14.2336,-169.5144,27.45,77,52,7.33,AS,2023-06-05,18:31:02
303,gaalkacyo,6.7697,47.4308,25.89,71,49,7.09,SO,2023-06-05,18:31:02
304,aldinga beach,-35.2793,138.4604,17.33,73,6,6.13,AU,2023-06-05,18:31:03
305,kendari,-3.945,122.4989,26.18,77,21,1.03,ID,2023-06-05,18:31:03
306,inyonga,-6.7167,32.0667,17.31,69,20,2.02,TZ,2023-06-05,18:31:03
307,zapolyarnyy,69.4154,30.8136,2.6,85,100,9.47,RU,2023-06-05,18:31:03
308,stettler,52.3168,-112.7186,25.86,34,96,2.57,CA,2023-06-05,18:31:04
309,villa dolores,-31.9459,-65.1896,14.22,78,29,1.19,AR,2023-06-05,18:31:04
310,bikenibeu village,1.3673,173.1241,30.98,74,20,3.6,KI,2023-06-05,18:31:04
311,antofagasta,-23.65,-70.4,15.6,87,34,1.68,CL,2023-06-05,18:29:49
312,muroto-misakicho,33.2833,134.15,17.22,91,100,3.54,JP,2023-06-05,18:31:05
313,cockburn town,21.4612,-71.1419,28.64,80,5,2.06,TC,2023-06-05,18:31:05
314,laojunmiao,39.8333,97.7333,15.45,33,5,0.87,CN,2023-06-05,18:31:05
315,trail,49.0998,-117.7022,32.6,17,0,3.61,CA,2023-06-05,18:30:32
316,hafar al-batin,28.4328,45.9708,30.32,20,0,3.09,SA,2023-06-05,18:31:05
317,tolanaro,-25.0319,46.9987,23.04,83,40,3.09,MG,2023-06-05,18:31:06
318,kyzyl-mazhalyk,51.1333,90.6,21.08,42,22,0.87,RU,2023-06-05,18:31:06
319,talara,-4.5772,-81.2719,25.42,78,75,3.6,PE,2023-06-05,18:29:06
320,puerto carreno,6.189,-67.4859,24.99,100,75,1.03,CO,2023-06-05,18:31:06
321,praia da vitoria,38.7333,-27.0667,19.14,88,75,6.37,PT,2023-06-05,18:21:23
322,vakarai,55.6035,23.8213,10.29,82,34,1.27,LT,2023-06-05,18:31:07
323,alofi,-19.0595,-169.9187,26.94,69,75,7.2,NU,2023-06-05,18:31:07
324,akjoujt,19.6969,-14.4164,29.34,30,3,5.17,MR,2023-06-05,18:31:07
325,east london,-33.0153,27.9116,14.03,56,99,2.15,ZA,2023-06-05,18:31:07
326,flying fish cove,-10.4217,105.6791,23.82,78,75,3.6,CX,2023-06-05,18:31:08
327,machico,32.7,-16.7667,22.62,100,75,11.83,PT,2023-06-05,18:31:08
328,hutang,31.5333,119.4833,18.36,90,100,1.45,CN,2023-06-05,18:31:08
329,muriti,-1.9833,32.9167,23.17,69,73,1.39,TZ,2023-06-05,18:31:09
330,ingeniero guillermo n. juarez,-23.9,-61.85,18.65,89,25,2.25,AR,2023-06-05,18:31:09
331,cinisi,38.1562,13.1073,19.56,84,20,4.12,IT,2023-06-05,18:31:09
332,trenggalek,-8.05,111.7167,23.87,95,97,2.18,ID,2023-06-05,18:31:10
333,camocim,-2.9022,-40.8411,25.51,86,39,4.35,BR,2023-06-05,18:31:10
334,oranjemund,-28.55,16.4333,12.76,77,30,1.15,NA,2023-06-05,18:31:10
335,kone,-21.0595,164.8658,25.17,59,77,4.34,NC,2023-06-05,18:31:10
336,yeosu,34.7546,127.6599,18.38,85,100,2.6,KR,2023-06-05,18:31:11
337,lasem,-6.6922,111.4527,25.16,82,92,3.51,ID,2023-06-05,18:31:11
338,guerrero negro,27.9769,-114.0611,18.47,64,64,8.53,MX,2023-06-05,18:31:11
339,cabedelo,-6.9811,-34.8339,25.37,78,51,4.56,BR,2023-06-05,18:30:38
340,qarauyl,48.9451,79.255,22.47,26,38,3.28,KZ,2023-06-05,18:31:12
341,puerto madryn,-42.7692,-65.0385,19.64,24,67,13.58,AR,2023-06-05,18:29:54
342,twon-brass,4.3151,6.2418,26.58,84,100,6.12,NG,2023-06-05,18:31:12
343,hukumati azrah,34.1736,69.6457,13.23,28,0,1.55,AF,2023-06-05,18:31:13
344,pauini,-7.7136,-66.9764,24.45,91,84,0.9,BR,2023-06-05,18:31:13
345,magadan,59.5667,150.8,10.85,63,79,2.66,RU,2023-06-05,18:31:13
346,kruisfontein,-34.0033,24.7314,9.68,72,100,1.68,ZA,2023-06-05,18:31:13
347,canoinhas,-26.1772,-50.39,12.05,91,0,1.41,BR,2023-06-05,18:31:14
348,nyurba,63.2842,118.3319,8.98,50,35,2.57,RU,2023-06-05,18:31:14
349,ponnur,16.0711,80.5494,30.73,73,69,2.6,IN,2023-06-05,18:31:14
350,ponta delgada,37.7333,-25.6667,17.4,88,40,8.23,PT,2023-06-05,18:31:15
351,ore,6.7457,4.8775,23.4,99,100,0.27,NG,2023-06-05,18:31:15
352,sungailiat,-1.85,106.1333,27.05,85,100,2.72,ID,2023-06-05,18:31:16
353,pacific grove,36.6177,-121.9166,16.9,81,100,7.15,US,2023-06-05,18:26:23
354,ust'-kulom,61.6864,53.6902,8.07,89,57,3.16,RU,2023-06-05,18:31:16
355,amos,48.5669,-78.1162,17.44,33,2,5.45,CA,2023-06-05,18:30:03
356,kuna,43.4918,-116.4201,29.45,34,20,4.12,US,2023-06-05,18:31:16
357,saint-pierre,-21.3393,55.4781,21.98,78,0,2.57,RE,2023-06-05,18:28:17
358,kolokani,13.5728,-8.0339,30.17,40,35,2.2,ML,2023-06-05,18:31:17
359,ancud,-41.8697,-73.8203,11.22,84,100,6.59,CL,2023-06-05,18:31:17
360,steinheim am albuch,48.6909,10.0638,13.25,95,2,1.82,DE,2023-06-05,18:31:17
361,chachapoyas,-6.2317,-77.869,12.16,94,60,1.71,PE,2023-06-05,18:31:18
362,narva,59.3772,28.1903,8.47,80,27,3.99,EE,2023-06-05,18:31:18
363,lodwar,3.1191,35.5973,28.2,46,69,4.33,KE,2023-06-05,18:31:18
364,kharp,66.8014,65.8081,9.87,70,44,3.07,RU,2023-06-05,18:31:18
365,bulgan,48.8125,103.5347,16.59,54,39,1.73,MN,2023-06-05,18:31:19
366,bucerias,20.75,-105.3333,29.43,65,20,5.14,MX,2023-06-05,18:30:09
367,prieska,-29.6641,22.7474,8.1,50,85,1.99,ZA,2023-06-05,18:31:19
368,manokwari,-0.8667,134.0833,28.28,72,77,2.12,ID,2023-06-05,18:31:19
369,puerto aysen,-45.4,-72.7,7.9,93,100,4.56,CL,2023-06-05,18:31:19
370,galliano,29.4422,-90.2992,28.0,69,0,0.0,US,2023-06-05,18:31:20
371,nema,57.5067,50.5011,7.96,82,25,1.92,RU,2023-06-05,18:31:20
372,yanam,16.7333,82.2167,27.57,88,99,0.58,IN,2023-06-05,18:31:20
373,shahrak,34.1074,64.3052,10.66,36,2,1.33,AF,2023-06-05,18:31:20
374,zhalantun,48.0,122.7167,17.22,46,19,4.2,CN,2023-06-05,18:29:14
375,suva,-18.1416,178.4415,25.71,83,75,1.03,FJ,2023-06-05,18:31:20
376,los altos,37.3852,-122.1141,26.29,56,0,5.66,US,2023-06-05,18:28:21
377,freetown,8.484,-13.2299,24.84,83,75,3.09,SL,2023-06-05,18:31:20
378,tokar,18.4254,37.729,30.32,66,23,3.01,SD,2023-06-05,18:31:21
379,duba,27.3513,35.6901,29.35,55,97,1.95,SA,2023-06-05,18:31:21
380,pandan,14.0453,124.1694,27.94,85,100,3.0,PH,2023-06-05,18:31:21
381,vanimo,-2.6741,141.3028,28.92,71,93,3.65,PG,2023-06-05,18:31:21
382,marlin,31.3063,-96.898,30.16,63,94,2.73,US,2023-06-05,18:31:21
383,brookings,44.3114,-96.7984,30.59,39,20,0.0,US,2023-06-05,18:28:19
384,robbah,33.2797,6.9098,23.8,55,49,6.68,DZ,2023-06-05,18:31:22
385,doctor juan leon mallorquin,-25.4,-55.2667,20.85,83,9,0.93,PY,2023-06-05,18:31:22
386,dunedin,-45.8742,170.5036,9.85,65,40,2.02,NZ,2023-06-05,18:31:08
387,wanning,18.8003,110.3967,27.17,88,62,2.86,CN,2023-06-05,18:31:22
388,walvis bay,-22.9575,14.5053,11.72,100,0,2.06,NA,2023-06-05,18:31:22
389,ullal,12.8,74.85,27.53,83,20,1.54,IN,2023-06-05,18:31:22
390,pedra branca,-5.4542,-39.7172,23.1,58,11,0.75,BR,2023-06-05,18:31:23
391,middelburg,-25.7751,29.4648,12.53,47,0,2.31,ZA,2023-06-05,18:31:23
392,ola,59.5833,151.2833,11.19,66,94,1.17,RU,2023-06-05,18:31:23
393,bol'sherech'ye,56.0925,74.6272,21.19,69,96,1.91,RU,2023-06-05,18:31:23
394,mangrol,21.1167,70.1167,28.61,77,33,5.54,IN,2023-06-05,18:31:23
395,trindade,-16.6494,-49.4889,21.86,56,60,1.61,BR,2023-06-05,18:30:11
396,bloomfield,40.8068,-74.1854,23.83,39,20,4.12,US,2023-06-05,18:29:44
397,polyarnyy,69.1989,33.4478,2.56,97,100,9.7,RU,2023-06-05,18:31:23
398,colonia,50.9333,6.95,17.75,60,0,1.54,DE,2023-06-05,18:30:37
399,usogorsk,63.4106,48.6872,7.84,87,79,4.18,RU,2023-06-05,18:31:24
400,tonota,-21.4833,27.4833,18.25,37,5,1.72,BW,2023-06-05,18:31:24
401,utete,-7.986,38.758,21.11,97,47,0.97,TZ,2023-06-05,18:31:24
402,ceerigaabo,10.6162,47.368,17.85,79,79,4.63,SO,2023-06-05,18:31:25
403,san luis de la loma,17.2706,-100.8939,29.07,62,4,3.26,MX,2023-06-05,18:31:25
404,isangel,-19.55,169.2667,24.62,60,99,6.14,VU,2023-06-05,18:31:25
405,san diego country estates,33.0067,-116.7836,21.86,63,40,2.57,US,2023-06-05,18:31:25
406,impfondo,1.6381,18.0667,20.53,99,88,0.95,CG,2023-06-05,18:31:25
407,bel ombre,-4.6167,55.4167,27.91,74,40,4.63,SC,2023-06-05,18:31:25
408,rikaze,29.25,88.8833,8.95,41,3,1.48,CN,2023-06-05,18:31:25
409,hadyach,50.3711,33.991,11.86,66,57,2.03,UA,2023-06-05,18:31:26
410,mahanoro,-19.9,48.8,19.56,90,8,2.48,MG,2023-06-05,18:31:26
411,caleta de carquin,-11.0925,-77.6267,21.42,77,19,3.94,PE,2023-06-05,18:31:26
412,taltal,-25.4,-70.4833,15.79,85,27,1.31,CL,2023-06-05,18:31:26
413,yuzhno-kurilsk,44.0306,145.8556,13.13,69,26,1.9,RU,2023-06-05,18:31:26
414,salahonda,2.1019,-78.7217,27.66,79,10,3.45,CO,2023-06-05,18:31:26
415,punto fijo,11.6956,-70.1996,29.43,72,82,7.37,VE,2023-06-05,18:31:27
416,puerto armuelles,8.2833,-82.8667,28.99,70,96,1.34,PA,2023-06-05,18:31:27
417,amahai,-3.3333,128.9167,30.05,81,40,2.5,ID,2023-06-05,18:31:27
418,la passe,45.5549,-0.8967,21.13,73,9,3.99,FR,2023-06-05,18:31:27
419,lethem,3.3803,-59.7968,26.88,73,58,1.87,GY,2023-06-05,18:31:27
420,aroma,15.8167,36.1333,33.26,34,61,6.83,SD,2023-06-05,18:31:28
421,salaqi,40.5414,110.5108,21.76,31,2,1.15,CN,2023-06-05,18:31:28
422,nacala,-14.5428,40.6728,21.87,86,0,1.22,MZ,2023-06-05,18:31:28
423,hammerfest,70.6634,23.6821,3.25,75,75,4.12,NO,2023-06-05,18:31:28
424,terenos,-20.4422,-54.8603,22.84,60,0,3.09,BR,2023-06-05,18:31:28
425,bamboo flat,11.7,92.7167,28.05,83,40,3.09,IN,2023-06-05,18:31:28
426,pokaran,26.9167,71.9167,29.46,50,0,5.18,IN,2023-06-05,18:31:29
427,port pirie,-33.1833,138.0167,17.91,56,0,3.45,AU,2023-06-05,18:31:29
428,changping,40.2186,116.2197,25.8,19,0,2.41,CN,2023-06-05,18:31:29
429,puerto deseado,-47.7503,-65.8938,13.35,52,100,14.51,AR,2023-06-05,18:31:29
430,kembe,4.6228,21.8865,21.01,95,51,0.78,CF,2023-06-05,18:31:29
431,tocopilla,-22.092,-70.1979,18.3,72,10,2.4,CL,2023-06-05,18:31:29
432,sinan,34.8262,126.1086,19.06,83,96,2.94,KR,2023-06-05,18:31:30
433,mudgere,13.1333,75.6333,20.49,97,89,2.07,IN,2023-06-05,18:31:30
434,khorixas,-20.3667,14.9667,15.05,19,0,1.23,NA,2023-06-05,18:31:30
435,san pedro pochutla,15.7333,-96.4667,30.4,61,31,3.13,MX,2023-06-05,18:30:01
436,howrah,22.5892,88.3103,30.0,84,20,1.54,IN,2023-06-05,18:31:30
437,port antonio,18.18,-76.4612,29.95,85,28,3.72,JM,2023-06-05,18:31:30
438,coruripe,-10.1256,-36.1756,23.88,86,11,2.99,BR,2023-06-05,18:28:04
439,yurgamysh,55.3714,64.4656,15.65,77,2,3.66,RU,2023-06-05,18:31:31
440,kavaratti,10.5669,72.642,29.14,74,97,4.77,IN,2023-06-05,18:31:31
441,kupang,-10.1667,123.5833,25.32,69,40,4.63,ID,2023-06-05,18:31:31
442,lillesand,58.2488,8.3778,12.16,93,0,1.54,NO,2023-06-05,18:31:31
443,tafresh,34.692,50.013,18.5,48,41,1.55,IR,2023-06-05,18:31:31
444,port shepstone,-30.7414,30.455,15.45,58,85,3.13,ZA,2023-06-05,18:31:32
445,alice town,25.7167,-79.3,26.92,73,10,5.67,BS,2023-06-05,18:31:32
446,ciudad melchor muzquiz,27.8833,-101.5167,30.31,41,40,4.07,MX,2023-06-05,18:31:32
447,bloemfontein,-29.1211,26.214,-2.29,93,53,1.03,ZA,2023-06-05,18:31:32
448,urzhar,47.093,81.6294,21.06,34,59,1.55,KZ,2023-06-05,18:31:32
449,nieuw amsterdam,5.8833,-55.0833,26.19,89,40,0.0,SR,2023-06-05,18:31:32
450,pisco,-13.7,-76.2167,21.03,73,2,6.17,PE,2023-06-05,18:31:33
451,mont-tremblant,46.1949,-74.6264,18.1,63,84,0.0,CA,2023-06-05,18:31:13
452,kohtla-jarve,59.3986,27.2731,8.08,84,15,4.45,EE,2023-06-05,18:31:33
453,pimentel,-6.8367,-79.9342,25.16,73,75,7.72,PE,2023-06-05,18:31:33
454,grand falls-windsor,48.9332,-55.6649,11.39,84,99,0.45,CA,2023-06-05,18:31:33
455,shiqian,27.5225,108.2281,21.26,93,99,0.2,CN,2023-06-05,18:31:34
456,inirida,3.8653,-67.9239,24.16,95,91,1.0,CO,2023-06-05,18:31:34
457,severnoye,56.3491,78.3619,22.01,69,1,1.47,RU,2023-06-05,18:31:34
458,imbituba,-28.24,-48.6703,18.13,83,89,3.46,BR,2023-06-05,18:31:34
459,yanykurgan,43.915,67.2481,25.39,14,0,3.1,KZ,2023-06-05,18:31:34
460,at taj,24.2049,23.2857,33.27,20,80,4.15,LY,2023-06-05,18:31:34
461,carrigaline,51.8117,-8.3986,13.86,82,20,2.57,IE,2023-06-05,18:31:35
462,cannonvale,-20.2833,148.7,21.66,82,62,8.0,AU,2023-06-05,18:31:35
463,ambodifotatra,-16.9833,49.85,24.37,81,21,6.11,MG,2023-06-05,18:31:35
464,shitanjing,39.2342,106.3439,21.38,20,84,1.9,CN,2023-06-05,18:31:35
465,gallipoli,40.4103,26.6708,15.92,86,12,5.24,TR,2023-06-05,18:31:35
466,el granada,37.5027,-122.4694,25.13,69,20,7.2,US,2023-06-05,18:31:36
467,bela cruz,-3.0506,-40.1678,24.05,88,24,2.31,BR,2023-06-05,18:31:36
468,atafu village,-8.5421,-172.5159,28.23,75,18,3.33,TK,2023-06-05,18:31:36
469,vernon,50.2581,-119.2691,25.52,21,0,2.68,CA,2023-06-05,18:30:12
470,dongola,19.1667,30.4833,33.76,22,34,3.41,SD,2023-06-05,18:31:36
471,berasia,23.6333,77.4333,28.91,44,3,3.79,IN,2023-06-05,18:31:36
472,stephenville,32.2207,-98.2023,27.32,62,40,2.57,US,2023-06-05,18:31:37
473,mejit,10.2753,170.8646,27.65,80,99,9.09,MH,2023-06-05,18:31:37
474,garachico,28.7781,-17.7646,21.06,83,0,6.17,ES,2023-06-05,18:31:37
475,connell,46.6635,-118.8611,32.09,12,0,0.89,US,2023-06-05,18:31:37
476,tindouf,27.6711,-8.1474,25.25,38,40,9.26,DZ,2023-06-05,18:31:37
477,kerikeri,-35.2268,173.9474,14.39,93,94,2.68,NZ,2023-06-05,18:31:38
478,katrineholm,58.9959,16.2072,12.69,77,7,2.29,SE,2023-06-05,18:31:38
479,sanya,18.2431,109.505,27.09,89,20,1.0,CN,2023-06-05,18:31:38
480,badiyah,22.45,58.8,29.97,49,0,1.81,OM,2023-06-05,18:31:38
481,filey,54.21,-0.2892,11.55,82,82,1.34,GB,2023-06-05,18:31:38
482,amble,55.3333,-1.5833,11.28,82,100,2.06,GB,2023-06-05,18:31:39
483,trincomalee,8.5711,81.2335,27.51,77,100,9.88,LK,2023-06-05,18:31:39
484,luwuk,-0.9516,122.7875,27.75,77,94,2.84,ID,2023-06-05,18:31:39
485,katsuura,35.1333,140.3,22.59,76,100,5.43,JP,2023-06-05,18:31:39
486,mata-utu,-13.2816,-176.1745,27.44,77,100,7.09,WF,2023-06-05,18:31:39
487,saint-philippe,-21.3585,55.7679,21.77,86,50,5.77,RE,2023-06-05,18:31:39
488,brisas de zicatela,15.8369,-97.0419,31.29,66,40,2.57,MX,2023-06-05,18:31:39
489,gold coast,-28.0,153.4333,20.69,76,85,5.14,AU,2023-06-05,18:31:24
490,broome,42.2506,-75.833,20.21,37,20,4.63,US,2023-06-05,18:31:40
491,villa de etla,17.2,-96.8,25.27,65,38,1.85,MX,2023-06-05,18:31:40
492,karapinar,37.716,33.5506,14.92,81,37,4.91,TR,2023-06-05,18:31:40
493,zaozersk,69.4005,32.4476,2.25,96,100,7.59,RU,2023-06-05,18:31:40
494,amalapuram,16.5833,82.0167,28.22,86,100,1.11,IN,2023-06-05,18:31:40
495,doka,13.5167,35.7667,24.51,74,96,6.91,SD,2023-06-05,18:31:40
496,yamada,39.4667,141.95,22.58,46,1,3.49,JP,2023-06-05,18:31:41
497,gaspe,48.8334,-64.4819,8.12,100,100,0.0,CA,2023-06-05,18:27:02
498,al bardiyah,31.7561,25.0865,20.57,72,66,4.05,LY,2023-06-05,18:31:41
499,lobujya,27.95,86.8167,-6.03,93,89,1.0,NP,2023-06-05,18:31:41
500,deal,51.2232,1.4043,11.75,74,16,7.8,GB,2023-06-05,18:31:41
501,ha'il,27.5219,41.6907,22.01,73,0,2.06,SA,2023-06-05,18:31:41
502,biltine,14.5333,20.9167,32.06,35,98,4.57,TD,2023-06-05,18:31:41
503,novyy urgal,51.0736,132.5642,17.5,61,53,0.31,RU,2023-06-05,18:31:41
504,dingli,35.8614,14.3822,20.09,78,0,5.66,MT,2023-06-05,18:31:42
505,montoro,38.0241,-4.3834,23.88,56,100,0.92,ES,2023-06-05,18:31:42
506,xilin hot,43.9667,116.0333,17.85,37,31,6.3,CN,2023-06-05,18:31:42
507,poplar bluff,36.757,-90.3929,30.88,47,0,4.12,US,2023-06-05,18:31:42
508,tongchuan,35.0806,109.0897,21.73,51,5,0.56,CN,2023-06-05,18:31:42
509,antalaha,-14.9003,50.2788,22.35,89,60,3.21,MG,2023-06-05,18:31:42
510,northwest harborcreek,42.1494,-79.9946,21.02,39,0,3.09,US,2023-06-05,18:31:43
511,mchinji,-13.7984,32.8802,14.78,83,7,1.45,MW,2023-06-05,18:31:43
512,derzhavinsk,51.1,66.3167,23.54,29,0,2.85,KZ,2023-06-05,18:31:43
513,sombrerete,23.6333,-103.65,25.49,21,57,6.67,MX,2023-06-05,18:30:37
514,syktyvkar,61.6764,50.8099,6.85,100,0,4.02,RU,2023-06-05,18:31:43
515,chonchi,-42.6128,-73.8092,11.56,83,100,3.95,CL,2023-06-05,18:31:43
516,niquero,20.0431,-77.5828,27.13,83,93,2.74,CU,2023-06-05,18:31:43
517,athens,37.9795,23.7162,22.31,56,0,3.6,GR,2023-06-05,18:31:19
518,banikoara,11.2985,2.4386,26.74,74,84,0.52,BJ,2023-06-05,18:31:44
519,pochinok,54.4068,32.4407,6.48,84,9,1.45,RU,2023-06-05,18:31:44
520,prairie du chien,43.0517,-91.1412,30.05,28,0,0.0,US,2023-06-05,18:30:14
521,kangding,30.0513,101.9603,12.49,94,100,1.25,CN,2023-06-05,18:31:44
522,along,28.1667,94.7667,23.88,77,2,0.79,IN,2023-06-05,18:31:44
523,kramfors,62.9316,17.7765,9.88,60,92,4.07,SE,2023-06-05,18:31:44
524,pontianak,-0.0333,109.3333,25.99,94,40,1.54,ID,2023-06-05,18:25:31
525,veraval,20.9,70.3667,28.82,76,30,5.83,IN,2023-06-05,18:31:45
526,mogadishu,2.0371,45.3438,26.73,82,23,7.49,SO,2023-06-05,18:31:45
527,christchurch,-43.5333,172.6333,10.79,90,75,3.6,NZ,2023-06-05,18:23:54
528,holualoa,19.6228,-155.9522,25.86,74,40,4.63,US,2023-06-05,18:31:45
529,ebolowa,2.9,11.15,20.91,99,99,0.65,CM,2023-06-05,18:31:45
530,chamical,-30.36,-66.314,15.15,84,97,3.12,AR,2023-06-05,18:31:45
531,casteljaloux,44.3176,0.0861,20.95,87,32,0.28,FR,2023-06-05,18:31:45
532,kaoma,-14.7833,24.8,14.64,42,0,2.69,ZM,2023-06-05,18:31:46
533,kavieng,-2.5744,150.7967,29.3,73,65,5.1,PG,2023-06-05,18:31:46
534,taroa,8.7058,171.2275,27.88,80,100,7.51,MH,2023-06-05,18:31:46
535,keetmanshoop,-26.5833,18.1333,11.51,46,0,4.63,NA,2023-06-05,18:31:46
536,kenora,49.8167,-94.4337,25.54,65,75,4.92,CA,2023-06-05,18:31:46
537,ulsteinvik,62.3432,5.8487,11.06,85,91,3.58,NO,2023-06-05,18:31:46
538,belo sur tsiribihina,-19.7,44.55,18.95,80,0,2.01,MG,2023-06-05,18:31:46
539,brazzaville,-4.2658,15.2832,25.17,86,48,0.87,CG,2023-06-05,18:31:47
540,trashi yangtse,27.6116,91.498,15.62,85,14,2.33,BT,2023-06-05,18:31:47
541,port blair,11.6667,92.75,28.02,83,40,3.09,IN,2023-06-05,18:29:50
542,tacoronte,28.4769,-16.4102,18.98,92,40,1.03,ES,2023-06-05,18:31:47
543,riberalta,-10.9833,-66.1,26.1,75,97,1.27,BO,2023-06-05,18:31:47
544,bejaia,36.7559,5.0843,20.6,78,40,2.06,DZ,2023-06-05,18:31:47
545,marsassoum,12.8275,-15.9806,27.05,58,75,4.13,SN,2023-06-05,18:31:48
546,vilyuysk,63.7553,121.6247,7.89,65,100,3.05,RU,2023-06-05,18:31:48
547,villa del prado,40.2692,-4.3046,21.73,78,59,2.06,ES,2023-06-05,18:31:48
548,ujae,8.9322,165.7642,28.6,78,36,6.62,MH,2023-06-05,18:31:48
549,puerto lempira,15.2667,-83.7667,31.08,66,20,5.14,HN,2023-06-05,18:31:48
550,smithers,54.7804,-127.1743,11.18,54,75,0.0,CA,2023-06-05,18:26:27
551,languyan,5.2618,120.0807,27.75,82,86,1.51,PH,2023-06-05,18:31:48
552,gokceada,40.2011,25.909,15.6,78,18,9.49,TR,2023-06-05,18:31:49
553,barranca,-10.75,-77.7667,21.12,77,24,3.35,PE,2023-06-05,18:31:49
554,berat,40.7058,19.9522,19.16,80,100,0.75,AL,2023-06-05,18:29:17
555,el haouaria,37.05,11.0144,21.01,86,100,4.97,TN,2023-06-05,18:31:49
556,kangaba,11.9333,-8.4167,27.36,52,92,2.17,ML,2023-06-05,18:31:49
557,nizhnyaya omka,55.4338,74.9426,21.68,72,96,1.05,RU,2023-06-05,18:31:49
558,winnemucca,40.973,-117.7357,28.03,18,0,3.6,US,2023-06-05,18:31:50
559,lensahn,54.2333,10.8833,11.06,77,1,0.95,DE,2023-06-05,18:31:50
560,alice springs,-23.7,133.8833,20.75,49,16,0.51,AU,2023-06-05,18:30:33
561,north bend,43.4065,-124.2243,25.69,63,0,11.83,US,2023-06-05,18:31:50
562,harnai,30.1005,67.9374,28.19,38,0,0.54,PK,2023-06-05,18:31:50
563,kozhevnikovo,56.2589,83.9714,23.13,62,0,1.42,RU,2023-06-05,18:31:50
564,biancavilla,37.6451,14.8671,16.97,93,100,0.86,IT,2023-06-05,18:31:50
565,el calafate,-50.3408,-72.2768,2.99,91,78,3.52,AR,2023-06-05,18:31:51
566,arno,60.1167,18.6333,11.55,89,68,3.05,SE,2023-06-05,18:31:51
567,gray,35.4167,-100.802,22.89,40,81,3.25,US,2023-06-05,18:31:51
568,safford,32.834,-109.7076,38.19,8,0,3.09,US,2023-06-05,18:31:51
569,severo-yeniseyskiy,60.3725,93.0408,16.35,85,72,0.28,RU,2023-06-05,18:31:51
570,kingscliff,-28.2667,153.5667,19.87,72,93,5.14,AU,2023-06-05,18:31:52
571,yefremov,53.1481,38.0992,8.3,81,28,2.59,RU,2023-06-05,18:31:52
572,guane,22.2025,-84.0875,27.61,62,84,1.32,CU,2023-06-05,18:31:52
573,shache,38.4167,77.2406,20.95,31,51,1.86,CN,2023-06-05,18:31:52
574,carutapera,-1.195,-46.02,24.55,90,4,2.57,BR,2023-06-05,18:31:52
575,ouadda,8.0777,22.4007,20.55,97,99,1.57,CF,2023-06-05,18:31:52
576,mitchell,43.7094,-98.0298,32.99,25,0,3.09,US,2023-06-05,18:31:53
577,linxia chengguanzhen,35.6003,103.2064,15.56,61,87,1.01,CN,2023-06-05,18:31:53
578,pilar,-9.5972,-35.9567,24.96,94,11,0.94,BR,2023-06-05,18:31:53
579,wynyard,-41.0,145.7167,13.32,88,100,5.41,AU,2023-06-05,18:31:53
580,kidal,18.4411,1.4078,32.46,11,34,4.5,ML,2023-06-05,18:31:53
581,surigao,9.7839,125.4889,28.5,75,97,2.78,PH,2023-06-05,18:31:53
582,zhongshu,24.5167,103.7667,16.68,96,100,2.18,CN,2023-06-05,18:31:54
583,saint joseph,39.7686,-94.8466,30.31,55,0,1.54,US,2023-06-05,18:27:58
584,nakamura,32.9833,132.9333,15.93,98,100,0.47,JP,2023-06-05,18:31:54
585,hirara,24.8,125.2833,26.92,89,75,7.2,JP,2023-06-05,18:31:54
586,imamoglu,37.2651,35.6572,19.84,84,26,0.8,TR,2023-06-05,18:31:54
587,niquelandia,-14.4739,-48.4597,21.51,46,10,1.31,BR,2023-06-05,18:31:54
588,yauya,-8.9833,-77.3,9.32,67,26,2.56,PE,2023-06-05,18:31:55
589,lazaro cardenas,17.9583,-102.2,28.58,69,25,4.67,MX,2023-06-05,18:31:55
590,bandarbeyla,9.4942,50.8122,27.63,80,100,10.29,SO,2023-06-05,18:31:55
591,sunland park,31.7965,-106.58,33.25,20,0,5.14,US,2023-06-05,18:31:55
